City ID,City,Latitude,Longitude,Temperature,Humidity,Cloudiness,Wind Speed,Country,Date/Time
0,port-aux-francais,-49.35,70.2167,32.97,79,89,45.5,TF,2023-08-29 19:48:29
1,atafu village,-8.5421,-172.5159,83.14,78,21,15.77,TK,2023-08-29 19:45:03
2,kununurra,-15.7667,128.7333,91.38,17,10,17.27,AU,2023-08-29 19:48:30
3,papatowai,-46.5619,169.4708,55.53,60,3,5.93,NZ,2023-08-29 19:43:38
4,dadukou,26.5479,101.7054,66.45,89,100,2.24,CN,2023-08-29 19:48:31
5,kapuskasing,49.4169,-82.4331,44.6,93,75,4.61,CA,2023-08-29 19:44:02
6,edinburgh of the seven seas,-37.0676,-12.3116,51.01,57,79,23.35,SH,2023-08-29 19:48:33
7,udachny,66.4167,112.4,64.27,64,100,5.75,RU,2023-08-29 19:48:35
8,hasaki,35.7333,140.8333,90.0,78,88,13.62,JP,2023-08-29 19:44:55
9,klyuchi,52.2667,79.1667,68.38,43,91,13.31,RU,2023-08-29 19:48:37
10,talnakh,69.4865,88.3972,45.21,56,55,4.21,RU,2023-08-29 19:48:38
11,dudinka,69.4058,86.1778,45.63,70,43,22.28,RU,2023-08-29 19:48:38
12,adamstown,-25.066,-130.1015,63.63,88,100,8.28,PN,2023-08-29 19:48:39
13,bilibino,68.0546,166.4372,48.22,94,100,3.51,RU,2023-08-29 19:48:41
14,peace river,56.2501,-117.286,79.11,61,20,3.44,CA,2023-08-29 19:48:38
15,waitangi,-43.9535,-176.5597,50.83,84,78,1.01,NZ,2023-08-29 19:43:54
16,margaret river,-33.95,115.0667,57.61,48,0,5.66,AU,2023-08-29 19:48:44
17,grytviken,-54.2811,-36.5092,32.32,89,37,12.57,GS,2023-08-29 19:48:45
18,blackmans bay,-43.0167,147.3167,53.02,79,95,5.01,AU,2023-08-29 19:48:45
19,port mathurin,-19.6833,63.4167,72.55,75,18,12.53,MU,2023-08-29 19:48:45
20,wailua homesteads,22.0669,-159.378,81.03,72,20,16.11,US,2023-08-29 19:48:46
21,broome,42.2506,-75.833,68.54,86,100,5.01,US,2023-08-29 19:48:46
22,novyy rogachik,48.6768,44.0608,47.3,44,12,5.28,RU,2023-08-29 19:48:46
23,myeik,12.4333,98.6,80.73,86,100,8.28,MM,2023-08-29 19:48:47
24,iskateley,67.6803,53.1512,48.51,79,100,7.2,RU,2023-08-29 19:39:35
25,port saint john's,-31.6229,29.5448,64.15,46,0,6.98,ZA,2023-08-29 19:48:48
26,badger,64.8,-147.5333,71.08,67,75,5.75,US,2023-08-29 19:48:48
27,anadyr,64.75,177.4833,55.0,58,40,8.95,RU,2023-08-29 19:40:13
28,nouadhibou,20.931,-17.0347,78.78,69,37,8.05,MR,2023-08-29 19:44:15
29,belyy yar,53.6039,91.3903,60.69,88,0,6.71,RU,2023-08-29 19:48:49
30,saipan,15.1355,145.701,88.5,70,40,5.75,MP,2023-08-29 19:39:25
31,enewetak,11.3474,162.3373,84.15,78,82,14.45,MH,2023-08-29 19:48:51
32,jamestown,42.097,-79.2353,63.84,94,0,5.75,US,2023-08-29 19:45:10
33,osh,40.5151,72.8083,65.05,68,14,4.47,KG,2023-08-29 19:48:30
34,sittwe,20.15,92.9,82.6,81,100,1.72,MM,2023-08-29 19:48:02
35,isiro,2.7739,27.616,64.02,99,31,2.21,CD,2023-08-29 19:48:53
36,petropavlovsk-kamchatsky,53.0452,158.6483,64.99,63,40,6.71,RU,2023-08-29 19:40:06
37,whitehorse,60.7161,-135.0538,73.26,36,75,10.36,CA,2023-08-29 19:48:54
38,chaozhou,23.6651,116.6379,85.86,66,91,7.58,CN,2023-08-29 19:48:55
39,port blair,11.6667,92.75,84.24,84,75,8.05,IN,2023-08-29 19:48:55
40,keflavik,64.0049,-22.5624,48.65,93,100,1.14,IS,2023-08-29 19:40:26
41,ribeira grande,38.5167,-28.7,72.77,88,95,1.01,PT,2023-08-29 19:48:55
42,chivacoa,10.1603,-68.895,73.65,98,57,0.81,VE,2023-08-29 19:48:55
43,port elizabeth,-33.918,25.5701,55.69,62,0,2.3,ZA,2023-08-29 19:48:56
44,vorgashor,67.5833,63.95,44.53,88,100,5.26,RU,2023-08-29 19:48:56
45,pisco,-13.7,-76.2167,66.25,77,0,3.44,PE,2023-08-29 19:34:38
46,kluang,2.0251,103.3328,84.9,67,87,4.52,MY,2023-08-29 19:48:56
47,bethel,41.3712,-73.414,70.52,86,100,1.97,US,2023-08-29 19:48:56
48,mutsu,41.2894,141.2169,75.02,92,100,13.4,JP,2023-08-29 19:48:57
49,ozu,33.5,132.55,89.22,63,55,13.67,JP,2023-08-29 19:48:57
50,kodiak,57.79,-152.4072,56.71,72,100,11.5,US,2023-08-29 19:48:57
51,panjab,34.388,67.0233,59.86,19,0,1.83,AF,2023-08-29 19:48:57
52,puerto natales,-51.7236,-72.4875,31.33,95,51,2.8,CL,2023-08-29 19:48:57
53,yellowknife,62.456,-114.3525,69.57,71,75,12.66,CA,2023-08-29 19:48:58
54,the pas,53.8251,-101.2541,62.62,82,0,9.22,CA,2023-08-29 19:48:58
55,qusmuryn,52.4503,64.6311,50.9,71,98,20.2,KZ,2023-08-29 19:48:58
56,kalmunai,7.4167,81.8167,84.81,66,100,2.44,LK,2023-08-29 19:39:33
57,birao,10.2849,22.7882,70.9,96,100,1.97,CF,2023-08-29 19:39:27
58,qaqortoq,60.7167,-46.0333,45.01,97,92,2.01,GL,2023-08-29 19:48:59
59,west island,-12.1568,96.8225,80.58,74,75,8.05,CC,2023-08-29 19:44:13
60,lerwick,60.1545,-1.1494,50.0,84,16,4.68,GB,2023-08-29 19:39:05
61,geraldton,-28.7667,114.6,73.81,46,0,9.22,AU,2023-08-29 19:39:33
62,ushuaia,-54.8,-68.3,40.66,75,0,5.75,AR,2023-08-29 19:49:00
63,vilyuchinsk,52.9306,158.4028,66.25,76,32,7.61,RU,2023-08-29 19:49:00
64,bel ombre,-4.6167,55.4167,78.64,78,20,11.5,SC,2023-08-29 19:39:08
65,queenstown,-31.8976,26.8753,53.98,25,0,7.38,ZA,2023-08-29 19:39:29
66,ji'an,27.1172,114.9793,79.97,71,88,11.23,CN,2023-08-29 19:49:01
67,stanley,54.868,-1.6985,49.77,88,20,10.36,GB,2023-08-29 19:49:01
68,college,64.8569,-147.8028,71.04,66,75,5.75,US,2023-08-29 19:49:01
69,aasiaat,68.7098,-52.8699,34.72,91,39,9.13,GL,2023-08-29 19:44:54
70,tazovsky,67.4667,78.7,49.14,69,100,11.68,RU,2023-08-29 19:49:02
71,ust-nera,64.5667,143.2,72.41,44,68,8.95,RU,2023-08-29 19:49:02
72,mason,39.3601,-84.3099,65.05,81,75,0.0,US,2023-08-29 19:39:18
73,taco pozo,-25.6167,-63.2833,62.35,42,3,3.71,AR,2023-08-29 19:49:03
74,peterborough,52.5736,-0.2478,49.93,93,75,10.36,GB,2023-08-29 19:44:22
75,isafjordur,66.0755,-23.124,48.83,83,100,2.37,IS,2023-08-29 19:49:03
76,zorritos,-3.6805,-80.6782,77.29,76,0,7.63,PE,2023-08-29 19:49:03
77,baise city,23.8997,106.6133,83.05,58,9,4.9,CN,2023-08-29 19:49:04
78,cukurca,37.2481,43.6136,64.89,58,73,3.4,TR,2023-08-29 19:49:05
79,palikir - national government center,6.9248,158.1611,81.45,89,100,6.91,FM,2023-08-29 19:40:44
80,sandnessjoen,66.0217,12.6316,46.92,81,3,7.27,NO,2023-08-29 19:49:05
81,puerto ayora,-0.7393,-90.3518,75.54,91,76,4.0,EC,2023-08-29 19:49:05
82,weno,7.4515,151.8468,85.95,79,100,8.05,FM,2023-08-29 19:40:19
83,ilulissat,69.2167,-51.1,39.22,93,100,6.91,GL,2023-08-29 19:49:06
84,iqaluit,63.7506,-68.5145,36.7,86,20,5.75,CA,2023-08-29 19:49:06
85,maymana,35.9214,64.7836,84.02,12,0,3.33,AF,2023-08-29 19:49:06
86,san fernando,15.0286,120.6898,85.73,93,100,8.01,PH,2023-08-29 19:49:06
87,wajir,1.7471,40.0573,72.81,78,34,12.86,KE,2023-08-29 19:49:07
88,kenora,49.8167,-94.4337,59.97,82,20,6.91,CA,2023-08-29 19:49:07
89,hawaiian paradise park,19.5933,-154.9731,80.08,78,75,5.75,US,2023-08-29 19:49:07
90,jayapura,-2.5333,140.7,92.59,74,72,5.95,ID,2023-08-29 19:49:07
91,touros,-5.1989,-35.4608,78.13,77,99,13.98,BR,2023-08-29 19:39:42
92,maridi,4.9158,29.4742,64.18,97,7,4.12,SS,2023-08-29 19:49:08
93,guayaramerin,-10.8368,-65.3614,84.11,44,80,1.12,BO,2023-08-29 19:49:08
94,chonchi,-42.6128,-73.8092,39.11,90,15,7.14,CL,2023-08-29 19:44:34
95,puerto baquerizo moreno,-0.9,-89.6,75.42,78,85,10.27,EC,2023-08-29 19:49:08
96,tahe,52.3333,124.7333,73.0,39,97,7.87,CN,2023-08-29 19:49:09
97,shenjiamen,29.9576,122.298,79.63,87,80,15.23,CN,2023-08-29 19:49:09
98,guerrero negro,27.9769,-114.0611,72.21,80,9,12.24,MX,2023-08-29 19:49:09
99,tuzla,44.5428,18.6694,56.97,100,40,1.14,BA,2023-08-29 19:49:09
100,la ronge,55.1001,-105.2842,73.65,60,0,8.05,CA,2023-08-29 19:39:54
101,bardai,11.65,7.2333,71.69,91,100,8.01,NG,2023-08-29 19:49:10
102,thompson,55.7435,-97.8558,62.76,72,100,5.75,CA,2023-08-29 19:49:10
103,punta del este,-34.9667,-54.95,49.08,94,75,4.61,UY,2023-08-29 19:49:10
104,mulayjah,27.271,48.4242,87.58,36,4,7.16,SA,2023-08-29 19:49:10
105,kaa-khem,51.6833,94.7333,70.72,65,100,5.08,RU,2023-08-29 19:40:32
106,cill airne,52.05,-9.5167,53.85,72,100,3.91,IE,2023-08-29 19:49:11
107,invercargill,-46.4,168.35,61.02,52,13,11.01,NZ,2023-08-29 19:49:11
108,luderitz,-26.6481,15.1594,63.07,66,0,1.21,NA,2023-08-29 19:49:11
109,mirnyy,62.5353,113.9611,73.24,60,79,4.0,RU,2023-08-29 19:49:11
110,tura,25.5198,90.2201,85.37,63,7,1.61,IN,2023-08-29 19:49:11
111,okhotsk,59.3833,143.3,66.88,73,2,7.72,RU,2023-08-29 19:49:12
112,san antonio de pale,-1.4014,5.6325,74.59,91,74,13.24,GQ,2023-08-29 19:45:01
113,constantia,44.1833,28.65,74.08,80,0,10.74,RO,2023-08-29 19:39:33
114,tiksi,71.6872,128.8694,46.27,86,100,4.59,RU,2023-08-29 19:49:13
115,bredasdorp,-34.5322,20.0403,62.49,49,0,5.82,ZA,2023-08-29 19:49:13
116,gadag,15.4167,75.6167,74.89,73,32,9.82,IN,2023-08-29 19:49:13
117,gunjur,13.2019,-16.7339,75.27,88,75,6.91,GM,2023-08-29 19:49:13
118,pacasmayo,-7.4006,-79.5714,67.33,88,8,10.38,PE,2023-08-29 19:49:14
119,hamilton,39.1834,-84.5333,66.29,78,0,3.44,US,2023-08-29 19:46:26
120,tralee,52.2704,-9.7026,55.02,71,100,5.73,IE,2023-08-29 19:39:43
121,harstad,68.799,16.5293,53.6,96,95,7.0,NO,2023-08-29 19:49:14
122,plouzane,48.3833,-4.6167,53.65,91,75,6.91,FR,2023-08-29 19:49:14
123,along,28.1667,94.7667,82.78,75,53,1.57,IN,2023-08-29 19:49:15
124,ovalle,-30.5983,-71.2003,56.93,66,0,3.62,CL,2023-08-29 19:47:24
125,acarau,-2.8856,-40.12,77.4,85,0,11.5,BR,2023-08-29 19:49:15
126,de aar,-30.6497,24.0123,50.85,33,0,4.61,ZA,2023-08-29 19:49:16
127,linqiong,30.4159,103.4609,73.22,81,100,2.93,CN,2023-08-29 19:49:16
128,mili,6.0815,171.735,84.0,75,27,18.3,MH,2023-08-29 19:49:16
129,lobujya,27.95,86.8167,42.33,46,0,3.6,NP,2023-08-29 19:49:16
130,georgetown,5.4112,100.3354,84.25,73,20,8.05,MY,2023-08-29 19:46:40
131,punta arenas,-53.15,-70.9167,37.83,88,100,5.1,CL,2023-08-29 19:49:17
132,escanaba,45.7453,-87.0646,54.84,71,100,8.05,US,2023-08-29 19:49:17
133,san patricio,28.017,-97.5169,85.93,54,67,5.5,US,2023-08-29 19:49:17
134,portland,45.5234,-122.6762,69.15,70,75,5.75,US,2023-08-29 19:39:59
135,asau,46.4333,26.4,67.12,86,6,0.89,RO,2023-08-29 19:49:17
136,nar'yan-mar,67.6713,53.087,48.63,79,100,7.27,RU,2023-08-29 19:49:18
137,honiara,-9.4333,159.95,82.87,78,100,1.95,SB,2023-08-29 19:48:11
138,chemolgan,43.1897,76.5292,60.46,30,78,4.59,KZ,2023-08-29 19:49:18
139,chazuta,-6.5742,-76.1367,81.45,74,0,0.27,PE,2023-08-29 19:49:18
140,avarua,-21.2078,-159.775,73.45,56,40,6.91,CK,2023-08-29 19:49:18
141,vila franca do campo,37.7167,-25.4333,70.21,76,83,3.31,PT,2023-08-29 19:39:42
142,sao joao dos inhamuns,-6.0,-40.2833,79.92,46,27,10.22,BR,2023-08-29 19:47:08
143,afaahiti,-17.75,-149.2833,76.87,82,78,8.93,PF,2023-08-29 19:49:19
144,khandyga,62.6667,135.6,76.28,49,0,4.99,RU,2023-08-29 19:40:23
145,mount isa,-20.7333,139.5,87.57,8,76,11.5,AU,2023-08-29 19:49:19
146,carnarvon,-24.8667,113.6333,82.06,30,0,7.27,AU,2023-08-29 19:39:38
147,susuman,62.7833,148.1667,71.33,43,47,9.6,RU,2023-08-29 19:49:20
148,margate,51.3813,1.3862,57.7,91,88,7.0,GB,2023-08-29 19:44:55
149,banda aceh,5.5577,95.3222,85.91,66,100,10.71,ID,2023-08-29 19:39:41
150,revda,56.801,59.9303,48.33,98,100,13.85,RU,2023-08-29 19:49:20
151,oranjemund,-28.55,16.4333,60.31,70,0,3.69,NA,2023-08-29 19:49:20
152,haiku-pauwela,20.9219,-156.3051,79.29,69,27,11.99,US,2023-08-29 19:49:21
153,longyearbyen,78.2186,15.6401,42.64,93,75,8.05,SJ,2023-08-29 19:49:21
154,tuy hoa,13.0833,109.3,92.79,50,62,13.73,VN,2023-08-29 19:39:53
155,bandon,51.7469,-8.7425,54.99,67,100,6.64,IE,2023-08-29 19:49:21
156,albany,42.6001,-73.9662,69.33,83,100,4.16,US,2023-08-29 19:43:34
157,hadibu,12.65,54.0333,79.75,82,32,19.13,YE,2023-08-29 19:49:22
158,olonkinbyen,70.9221,-8.7187,39.67,92,100,9.84,SJ,2023-08-29 19:49:22
159,isangel,-19.55,169.2667,72.25,89,100,20.69,VU,2023-08-29 19:37:48
160,gadzhiyevo,69.2551,33.3362,50.07,91,99,9.71,RU,2023-08-29 19:49:23
161,island harbour,50.724,-1.2758,53.06,88,21,3.0,GB,2023-08-29 19:49:23
162,hermanus,-34.4187,19.2345,61.75,74,3,2.95,ZA,2023-08-29 19:49:24
163,otuzco,-7.9,-78.5833,54.39,69,40,1.52,PE,2023-08-29 19:49:24
164,bathinda,30.2,74.95,88.3,47,0,5.06,IN,2023-08-29 19:49:24
165,kailua-kona,19.6406,-155.9956,79.83,80,100,10.36,US,2023-08-29 19:46:24
166,bolivar,37.6145,-93.4105,76.1,65,1,10.2,US,2023-08-29 19:48:23
167,wacheng,33.7833,114.5167,81.19,62,0,2.13,CN,2023-08-29 19:49:25
168,nagqu,31.5,92.0,52.52,62,6,5.7,CN,2023-08-29 19:39:40
169,selebi-phikwe,-21.979,27.8498,48.72,89,64,4.03,BW,2023-08-29 19:49:25
170,clorinda,-25.2848,-57.7185,71.76,71,0,5.14,AR,2023-08-29 19:49:25
171,lihue,21.9789,-159.3672,83.23,63,20,16.11,US,2023-08-29 19:49:26
172,alesund,62.4723,6.1549,53.29,91,100,0.0,NO,2023-08-29 19:49:26
173,ribeira brava,32.65,-17.0667,74.16,81,18,5.64,PT,2023-08-29 19:49:26
174,las heras,-46.5419,-68.9359,46.02,58,100,27.22,AR,2023-08-29 19:40:59
175,boende,-0.2167,20.8667,70.34,98,96,2.86,CD,2023-08-29 19:49:26
176,hajjah,15.6943,43.6058,71.1,64,67,0.2,YE,2023-08-29 19:49:26
177,sitka,57.0531,-135.33,60.69,82,100,6.91,US,2023-08-29 19:49:27
178,hirara,24.8,125.2833,88.07,74,40,13.8,JP,2023-08-29 19:49:27
179,glace bay,46.1969,-59.957,64.29,96,100,6.91,CA,2023-08-29 19:49:28
180,pauini,-7.7136,-66.9764,79.03,60,1,0.87,BR,2023-08-29 19:41:04
181,kulachi,31.9286,70.4592,93.07,37,0,3.62,PK,2023-08-29 19:49:28
182,ixtapa,20.7,-105.2,78.03,100,100,3.44,MX,2023-08-29 19:39:53
183,lebu,-37.6167,-73.65,51.13,95,100,18.88,CL,2023-08-29 19:49:29
184,fuxin,42.0156,121.6589,76.62,44,57,6.2,CN,2023-08-29 19:49:29
185,ad dilam,23.9915,47.1627,91.81,16,9,5.19,SA,2023-08-29 19:49:29
186,yuzhno-kurilsk,44.0306,145.8556,64.18,70,44,8.16,RU,2023-08-29 19:49:30
187,olbia,40.9214,9.4856,69.85,60,0,20.71,IT,2023-08-29 19:49:30
188,aykhal,66.0,111.5,60.03,79,100,12.24,RU,2023-08-29 19:49:30
189,krusevac,43.58,21.3339,66.56,90,12,3.33,RS,2023-08-29 19:49:30
190,jabor,5.921,169.6434,83.39,79,98,12.48,MH,2023-08-29 19:49:30
191,daru,-9.0763,143.2092,78.67,64,82,12.3,PG,2023-08-29 19:49:31
192,raahe,64.6833,24.4833,57.96,92,100,13.96,FI,2023-08-29 19:49:31
193,pariaman,-0.619,100.12,82.45,81,100,2.62,ID,2023-08-29 19:40:37
194,calbuco,-41.768,-73.1273,45.61,87,54,11.59,CL,2023-08-29 19:49:31
195,arteche,12.2645,125.4048,90.86,54,72,9.26,PH,2023-08-29 19:39:52
196,zyrya,40.3661,50.2917,73.49,55,52,18.54,AZ,2023-08-29 19:49:31
197,ilirska bistrica,45.5697,14.2408,57.38,100,100,4.38,SI,2023-08-29 19:49:32
198,tolanaro,-25.0319,46.9987,64.47,82,75,9.22,MG,2023-08-29 19:40:49
199,sisimiut,66.9395,-53.6735,40.57,87,81,5.08,GL,2023-08-29 19:49:32
200,ploneour-lanvern,47.9,-4.2833,53.92,94,0,4.61,FR,2023-08-29 19:49:32
201,holualoa,19.6228,-155.9522,76.19,80,100,10.36,US,2023-08-29 19:39:47
202,new norfolk,-42.7826,147.0587,55.15,86,98,4.32,AU,2023-08-29 19:44:39
203,perelyub,51.8667,50.3667,52.05,68,35,10.02,RU,2023-08-29 19:49:33
204,vernon,50.2581,-119.2691,75.33,49,99,1.14,CA,2023-08-29 19:36:28
205,arraial do cabo,-22.9661,-42.0278,68.94,92,100,13.13,BR,2023-08-29 19:44:53
206,fale old settlement,-9.3852,-171.2468,82.81,79,71,16.8,TK,2023-08-29 19:49:33
207,tanjungtiram,4.0613,98.3699,80.1,83,100,5.14,ID,2023-08-29 19:49:33
208,polyarnyy,69.1989,33.4478,50.34,92,100,9.37,RU,2023-08-29 19:44:53
209,le port,-20.9373,55.2919,67.51,95,17,7.27,RE,2023-08-29 19:49:34
210,oppdal,62.5943,9.6912,48.56,98,99,1.12,NO,2023-08-29 19:49:34
211,ouani,-12.1322,44.4258,76.98,71,45,14.32,KM,2023-08-29 19:49:34
212,arecibo,18.4724,-66.7157,81.05,83,91,5.41,PR,2023-08-29 19:49:34
213,souillac,-20.5167,57.5167,71.98,78,40,8.05,MU,2023-08-29 19:49:35
214,nantucket,41.2835,-70.0995,66.78,100,100,6.91,US,2023-08-29 19:46:37
215,dul'durga,50.6761,113.5931,70.86,39,13,7.85,RU,2023-08-29 19:49:35
216,strezhevoy,60.7333,77.5889,59.14,78,100,5.75,RU,2023-08-29 19:40:19
217,usinsk,65.9939,57.5281,46.65,82,10,7.58,RU,2023-08-29 19:49:35
218,st. john's,47.5649,-52.7093,59.77,84,75,12.66,CA,2023-08-29 19:49:36
219,niebull,54.7866,8.8285,54.54,92,99,7.47,DE,2023-08-29 19:49:36
220,wundanyi,-3.4019,38.364,57.0,85,83,5.73,KE,2023-08-29 19:49:36
221,pitimbu,-7.4706,-34.8086,75.79,80,6,5.59,BR,2023-08-29 19:49:36
222,colonia,50.9333,6.95,56.84,82,20,1.14,DE,2023-08-29 19:47:51
223,i-n-salah,27.1935,2.4607,87.55,38,63,12.15,DZ,2023-08-29 19:49:37
224,ta`u,-14.2336,-169.5144,80.17,77,79,23.8,AS,2023-08-29 19:49:37
225,kwang binh,17.4833,106.6,86.5,64,100,13.15,VN,2023-08-29 19:49:37
226,mala,-12.6581,-76.6308,66.43,82,47,7.99,PE,2023-08-29 19:49:37
227,nemuro,43.3236,145.575,62.85,76,100,9.26,JP,2023-08-29 19:49:13
228,tougan,13.0667,-3.0667,75.65,86,1,7.78,BF,2023-08-29 19:49:38
229,east london,-33.0153,27.9116,65.62,28,4,6.15,ZA,2023-08-29 19:49:38
230,novovorontsovka,47.5004,33.9175,69.51,52,1,10.11,UA,2023-08-29 19:49:38
231,bamboo flat,11.7,92.7167,84.29,84,75,8.05,IN,2023-08-29 19:49:38
232,mooirivier,-29.2082,29.9946,46.13,65,0,3.11,ZA,2023-08-29 19:49:39
233,sinop,41.7711,34.8709,64.44,77,14,9.24,TR,2023-08-29 19:49:39
234,xianshuigu,38.985,117.3828,82.4,51,0,4.47,CN,2023-08-29 19:49:39
235,lompoc,34.6391,-120.4579,64.6,78,0,25.01,US,2023-08-29 19:49:39
236,mogadishu,2.0371,45.3438,76.3,84,71,17.4,SO,2023-08-29 19:46:29
237,ilam,26.9167,87.9167,75.51,79,70,2.86,NP,2023-08-29 19:49:40
238,burao,9.5221,45.5336,70.32,63,11,22.03,SO,2023-08-29 19:40:19
239,gaspe,48.8334,-64.4819,68.22,73,75,8.05,CA,2023-08-29 19:40:22
240,richards bay,-28.783,32.0377,61.75,78,0,11.43,ZA,2023-08-29 19:39:56
241,san felipe,10.3399,-68.7425,74.23,96,82,1.88,VE,2023-08-29 19:49:40
242,skovorodino,53.9833,123.9167,74.66,41,95,5.99,RU,2023-08-29 19:49:41
243,grand falls-windsor,48.9332,-55.6649,53.85,86,0,5.97,CA,2023-08-29 19:49:41
244,shache,38.4167,77.2406,72.72,30,0,1.14,CN,2023-08-29 19:49:41
245,hammerfest,70.6634,23.6821,50.45,93,99,0.0,NO,2023-08-29 19:49:41
246,novyy urengoy,66.0833,76.6333,52.38,66,100,9.66,RU,2023-08-29 19:49:41
247,bubaque,11.2833,-15.8333,79.74,83,100,12.86,GW,2023-08-29 19:49:42
248,kirando,-7.4167,30.6,70.25,59,0,8.88,TZ,2023-08-29 19:49:42
249,karystos,38.0133,24.4161,81.18,49,0,4.0,GR,2023-08-29 19:49:42
250,les avirons,-21.2418,55.3394,64.17,94,100,11.5,RE,2023-08-29 19:49:42
251,zaragoza,41.6561,-0.8773,63.32,62,0,16.11,ES,2023-08-29 19:49:43
252,chalastra,40.6286,22.7328,74.05,74,0,6.11,GR,2023-08-29 19:49:43
253,sawai madhopur,25.9833,76.3667,81.73,61,0,10.09,IN,2023-08-29 19:49:43
254,norilsk,69.3535,88.2027,45.43,61,76,5.93,RU,2023-08-29 19:49:43
255,midvagur,62.0511,-7.1939,49.03,87,75,17.27,FO,2023-08-29 19:49:43
256,port alfred,-33.5906,26.891,68.32,32,0,8.37,ZA,2023-08-29 19:49:44
257,tual,-5.6667,132.75,76.6,84,98,20.07,ID,2023-08-29 19:49:44
258,dunedin,-45.8742,170.5036,55.8,56,11,4.0,NZ,2023-08-29 19:49:44
259,ambovombe,-25.1667,46.0833,64.94,74,0,16.06,MG,2023-08-29 19:49:44
260,pacific grove,36.6177,-121.9166,63.18,78,0,11.01,US,2023-08-29 19:45:40
261,khanty-mansiysk,61.0042,69.0019,51.91,100,0,4.47,RU,2023-08-29 19:41:05
262,noumea,-22.2763,166.4572,72.0,99,100,8.37,NC,2023-08-29 19:49:45
263,douglas,41.3,-96.167,72.97,69,0,0.0,US,2023-08-29 19:46:35
264,hithadhoo,-0.6,73.0833,81.46,74,79,12.28,MV,2023-08-29 19:49:45
265,kapa'a,22.0752,-159.319,82.45,72,20,16.11,US,2023-08-29 19:49:46
266,port augusta,-32.5,137.7667,60.37,66,94,13.33,AU,2023-08-29 19:49:47
267,batouri,4.4333,14.3667,63.93,99,100,2.3,CM,2023-08-29 19:49:47
268,codrington,-38.2667,141.9667,54.46,68,68,17.65,AU,2023-08-29 19:49:47
269,ulladulla,-35.35,150.4667,73.56,40,89,10.49,AU,2023-08-29 19:49:47
270,uturoa,-16.7333,-151.4333,78.22,80,56,11.92,PF,2023-08-29 19:49:48
271,texistepec,17.8833,-94.7833,76.73,91,86,4.7,MX,2023-08-29 19:49:48
272,cabo san lucas,22.8909,-109.9124,85.75,77,41,5.75,MX,2023-08-29 19:49:43
273,vadso,70.0744,29.7487,51.96,93,75,8.05,NO,2023-08-29 19:49:48
274,reggane,26.7158,0.1714,91.15,32,71,7.61,DZ,2023-08-29 19:49:49
275,fortuna,40.5982,-124.1573,70.14,97,24,7.16,US,2023-08-29 19:49:49
276,kingston,17.997,-76.7936,84.94,77,20,18.41,JM,2023-08-29 19:45:19
277,urengoy,65.9667,78.3667,48.4,89,100,10.25,RU,2023-08-29 19:49:50
278,alofi,-19.0595,-169.9187,76.89,61,75,18.41,NU,2023-08-29 19:49:50
279,cadale,2.7603,46.3222,76.37,84,45,17.76,SO,2023-08-29 19:49:50
280,tocopilla,-22.092,-70.1979,65.98,66,1,6.31,CL,2023-08-29 19:47:14
281,port lincoln,-34.7333,135.8667,55.29,61,100,15.52,AU,2023-08-29 19:47:12
282,diffa,13.3154,12.6113,81.97,57,88,11.79,NE,2023-08-29 19:49:51
283,waimea,20.0231,-155.6717,68.72,88,59,5.01,US,2023-08-29 19:49:51
284,swan hill,-35.3378,143.5544,65.53,43,73,13.42,AU,2023-08-29 19:49:51
285,bafia,4.75,11.2333,67.95,98,98,2.39,CM,2023-08-29 19:49:52
286,macau,22.2006,113.5461,82.13,78,20,16.11,MO,2023-08-29 19:36:35
287,howrah,22.5892,88.3103,84.2,89,75,4.61,IN,2023-08-29 19:40:14
288,riberalta,-10.9833,-66.1,80.76,50,17,0.89,BO,2023-08-29 19:49:52
289,utrik,11.2278,169.8474,83.48,77,22,18.88,MH,2023-08-29 19:49:53
290,amos,48.5669,-78.1162,47.39,98,100,8.55,CA,2023-08-29 19:48:53
291,melekeok village,7.4957,134.6367,88.36,70,75,9.22,PW,2023-08-29 19:49:53
292,farim,12.4839,-15.2217,73.74,98,100,3.22,GW,2023-08-29 19:49:54
293,kismayo,-0.3582,42.5454,76.17,82,19,14.58,SO,2023-08-29 19:49:54
294,sabang,5.8933,95.3214,83.3,75,100,16.11,ID,2023-08-29 19:49:54
295,puerto aysen,-45.4,-72.7,39.51,100,100,4.99,CL,2023-08-29 19:49:54
296,lukolela,-1.0605,17.1821,67.78,97,72,2.28,CD,2023-08-29 19:49:55
297,mata-utu,-13.2816,-176.1745,81.1,81,100,22.68,WF,2023-08-29 19:48:25
298,kirillov,59.863,38.3813,48.61,97,37,3.24,RU,2023-08-29 19:49:55
299,saint-laurent-du-maroni,5.5039,-54.0289,74.62,99,13,2.8,GF,2023-08-29 19:49:55
300,glubokoye,50.1456,82.3114,62.35,72,0,2.24,KZ,2023-08-29 19:49:55
301,fisterra,42.9049,-9.2629,60.85,87,97,11.48,ES,2023-08-29 19:49:56
302,tindouf,27.6711,-8.1474,75.65,53,0,18.41,DZ,2023-08-29 19:49:56
303,hilo,19.7297,-155.09,80.11,78,75,5.75,US,2023-08-29 19:41:09
304,hotan,37.0997,79.9269,77.36,30,0,6.42,CN,2023-08-29 19:49:56
305,dakhla,23.6848,-15.958,69.08,85,9,15.35,EH,2023-08-29 19:49:56
306,savanna-la-mar,18.219,-78.1332,85.95,84,66,7.7,JM,2023-08-29 19:49:56
307,nuuk,64.1835,-51.7216,45.21,100,100,18.41,GL,2023-08-29 19:47:06
308,flying fish cove,-10.4217,105.6791,78.48,78,40,12.66,CX,2023-08-29 19:49:57
309,northam,51.0333,-4.2167,57.33,85,55,10.4,GB,2023-08-29 19:49:57
310,kudahuvadhoo,2.6708,72.8944,82.58,71,100,10.16,MV,2023-08-29 19:40:47
311,zinder,13.8072,8.9881,84.33,57,30,9.95,NE,2023-08-29 19:49:58
312,lazaro cardenas,17.9583,-102.2,81.68,81,28,1.23,MX,2023-08-29 19:49:58
313,bandarbeyla,9.4942,50.8122,80.58,64,6,27.2,SO,2023-08-29 19:49:58
314,priargunsk,50.3691,119.1012,70.27,41,100,8.19,RU,2023-08-29 19:49:58
315,valbo,60.65,17.0333,54.91,98,100,1.01,SE,2023-08-29 19:49:58
316,meadow lakes,61.6247,-149.6011,57.54,94,100,4.61,US,2023-08-29 19:40:15
317,miasskoye,55.2784,61.8905,48.07,94,100,18.25,RU,2023-08-29 19:49:59
318,chapeco,-27.0964,-52.6183,51.33,82,16,2.1,BR,2023-08-29 19:49:59
319,benguela,-12.5763,13.4055,70.16,88,57,4.43,AO,2023-08-29 19:49:59
320,ottumwa,41.02,-92.4113,72.32,69,0,6.91,US,2023-08-29 19:49:59
321,asentamiento humano nicolas de pierola,-11.95,-76.7,56.14,57,5,1.07,PE,2023-08-29 19:50:00
322,ola,59.5833,151.2833,71.15,76,18,6.89,RU,2023-08-29 19:50:00
323,mikuni,36.2171,136.1519,93.11,61,100,10.22,JP,2023-08-29 19:50:00
324,pandan,14.0453,124.1694,87.73,68,100,18.25,PH,2023-08-29 19:50:01
325,gilgit,35.9221,74.3087,77.67,34,0,1.95,PK,2023-08-29 19:50:01
326,bengkulu,-3.8004,102.2655,81.7,69,77,5.21,ID,2023-08-29 19:50:01
327,nyala,12.05,24.8833,76.33,73,99,5.44,SD,2023-08-29 19:50:01
328,kon tum,14.35,108.0,78.58,82,95,3.83,VN,2023-08-29 19:50:01
329,maintirano,-18.0667,44.0167,72.23,76,30,3.67,MG,2023-08-29 19:50:03
330,huarmey,-10.0681,-78.1522,68.02,83,18,11.1,PE,2023-08-29 19:50:03
331,callao,-12.0667,-77.15,68.29,77,75,13.8,PE,2023-08-29 19:50:04
332,mandera,3.9366,41.867,75.45,67,92,13.94,KE,2023-08-29 19:50:04
333,cherdyn',60.403,56.4787,47.95,72,40,7.7,RU,2023-08-29 19:50:04
334,egilsstadir,65.2653,-14.3948,45.45,85,46,6.58,IS,2023-08-29 19:50:04
335,long beach,33.767,-118.1892,78.53,60,0,9.22,US,2023-08-29 19:50:05
336,porto novo,6.4965,2.6036,78.62,92,96,6.4,BJ,2023-08-29 19:40:18
337,sao jose da coroa grande,-8.8978,-35.1478,76.28,82,27,2.26,BR,2023-08-29 19:50:05
338,coquimbo,-29.9533,-71.3436,55.13,94,0,10.36,CL,2023-08-29 19:50:05
339,casa grande,32.8795,-111.7573,101.66,17,75,0.0,US,2023-08-29 19:50:00
340,chibougamau,49.9168,-74.3659,49.62,100,100,8.05,CA,2023-08-29 19:47:20
341,alpena,45.0617,-83.4327,54.03,99,100,11.99,US,2023-08-29 19:50:06
342,kilindoni,-7.9139,39.6668,76.03,82,7,19.51,TZ,2023-08-29 19:50:06
343,eldorado at santa fe,35.5264,-105.9347,70.03,45,0,13.8,US,2023-08-29 19:50:07
344,roudnice nad labem,50.4253,14.2618,54.91,100,100,4.05,CZ,2023-08-29 19:50:07
345,woolgoolga,-30.1106,153.2007,73.27,58,1,15.08,AU,2023-08-29 19:50:07
346,riosucio,5.4216,-75.7032,57.72,86,32,1.3,CO,2023-08-29 19:50:07
347,brisas de zicatela,15.8369,-97.0419,81.12,69,75,2.3,MX,2023-08-29 19:50:08
348,ad darb,17.7229,42.2526,88.75,65,100,5.66,SA,2023-08-29 19:50:08
349,baymak,52.5933,58.3225,47.26,86,100,20.74,RU,2023-08-29 19:50:08
350,baruun-urt,46.6806,113.2792,68.38,45,99,8.34,MN,2023-08-29 19:50:09
351,patterson,37.4716,-121.1297,82.51,53,0,7.45,US,2023-08-29 19:50:10
352,pudozh,61.8099,36.5345,53.15,98,45,4.45,RU,2023-08-29 19:50:10
353,codajas,-3.8367,-62.0569,85.57,34,85,4.79,BR,2023-08-29 19:50:10
354,buka,40.8108,69.1986,79.45,24,100,2.35,UZ,2023-08-29 19:50:10
355,dumingag,8.1692,123.3506,87.8,64,99,6.89,PH,2023-08-29 19:50:11
356,ertil',51.8406,40.8056,56.1,53,46,2.24,RU,2023-08-29 19:50:11
357,linden,6.0,-58.3,75.58,93,0,2.91,GY,2023-08-29 19:50:12
358,namibe,-15.1961,12.1522,67.84,87,54,4.23,AO,2023-08-29 19:50:12
359,makueni boma,-1.8041,37.6203,60.08,91,85,2.28,KE,2023-08-29 19:50:12
360,kashgar,39.4547,75.9797,70.81,32,0,11.18,CN,2023-08-29 19:50:12
361,estevan,49.1334,-102.9842,73.6,56,0,10.36,CA,2023-08-29 19:50:12
362,opuwo,-18.0607,13.84,64.76,48,6,8.41,NA,2023-08-29 19:50:13
363,ash shatrah,31.4117,46.1742,88.48,26,0,5.61,IQ,2023-08-29 19:50:13
364,saldanha,-33.0117,17.9442,57.25,89,1,4.97,ZA,2023-08-29 19:50:13
365,abepura,-2.6333,140.5833,92.21,49,20,14.97,ID,2023-08-29 19:41:01
366,gizo,-8.103,156.8419,80.24,79,96,15.48,SB,2023-08-29 19:50:14
367,del rio,29.3627,-100.8968,89.19,30,0,15.99,US,2023-08-29 19:46:31
368,khor,47.8861,134.9464,58.48,96,100,7.58,RU,2023-08-29 19:50:14
369,antsiranana,-12.2787,49.2917,71.53,70,20,14.7,MG,2023-08-29 19:50:14
370,tazacorte,28.629,-17.9293,72.14,80,100,18.41,ES,2023-08-29 19:50:15
371,prince rupert,54.3161,-130.3201,62.01,84,100,2.3,CA,2023-08-29 19:49:28
372,alice springs,-23.7,133.8833,76.55,18,0,12.66,AU,2023-08-29 19:50:15
373,san sebastian de la gomera,28.0916,-17.1133,73.76,83,0,6.91,ES,2023-08-29 19:50:16
374,nova sintra,14.8667,-24.7167,74.71,82,86,10.47,CV,2023-08-29 19:40:48
375,homer,59.6425,-151.5483,57.11,70,0,6.91,US,2023-08-29 19:50:16
376,freeport,40.6576,-73.5832,72.81,92,100,4.61,US,2023-08-29 19:50:16
377,chinde,26.8418,88.0763,72.86,74,51,2.95,NP,2023-08-29 19:50:16
378,nishinoomote,30.7333,131.0,84.76,100,75,13.8,JP,2023-08-29 19:50:17
379,floro,61.5996,5.0328,53.56,94,75,5.75,NO,2023-08-29 19:50:17
380,concordia,-31.393,-58.0209,46.78,69,0,1.99,AR,2023-08-29 19:50:17
381,inarajan village,13.2736,144.7484,84.97,84,100,17.16,GU,2023-08-29 19:50:17
382,sao joao da barra,-21.6403,-41.0511,70.74,87,100,15.12,BR,2023-08-29 19:50:18
383,vila velha,-20.3297,-40.2925,70.95,94,75,5.01,BR,2023-08-29 19:50:18
384,aswan,24.0934,32.907,87.1,25,0,4.61,EG,2023-08-29 19:46:35
385,puerto ayacucho,5.6639,-67.6236,72.55,93,96,5.88,VE,2023-08-29 19:50:19
386,jiwani,25.05,61.7417,79.63,84,100,11.32,PK,2023-08-29 19:50:19
387,menzelinsk,55.7271,53.1026,49.98,70,19,14.67,RU,2023-08-29 19:50:19
388,maralal,1.0968,36.698,56.84,77,88,5.23,KE,2023-08-29 19:50:19
389,antofagasta,-23.65,-70.4,61.88,78,24,7.07,CL,2023-08-29 19:49:39
390,macapa,0.0389,-51.0664,82.38,78,20,8.05,BR,2023-08-29 19:49:01
391,qarazhal,48.0078,70.7903,63.73,56,99,4.94,KZ,2023-08-29 19:50:20
392,saint george's,12.0564,-61.7485,80.28,89,40,5.75,GD,2023-08-29 19:50:20
393,fernie,49.5,-115.0687,79.0,38,82,4.59,CA,2023-08-29 19:50:20
394,upata,8.0086,-62.3989,73.18,88,79,3.62,VE,2023-08-29 19:50:21
395,santa terezinha,-29.9002,-50.0904,57.16,91,4,10.45,BR,2023-08-29 19:50:21
396,el granada,37.5027,-122.4694,65.77,68,0,23.02,US,2023-08-29 19:40:35
397,amasra,41.7463,32.3863,73.4,64,0,6.26,TR,2023-08-29 19:50:21
398,gorom-gorom,14.4439,-0.2361,85.5,58,0,14.74,BF,2023-08-29 19:50:21
399,tezu,27.9167,96.1667,86.5,64,5,3.36,IN,2023-08-29 19:50:22
400,bridgewater,44.3835,-64.5155,66.7,96,100,3.44,CA,2023-08-29 19:50:22
401,olinda,-8.0089,-34.8553,80.33,78,75,6.91,BR,2023-08-29 19:50:22
402,timbuktu,16.7735,-3.0074,87.3,46,97,9.13,ML,2023-08-29 19:50:22
403,paros,37.0833,25.15,78.39,69,0,6.91,GR,2023-08-29 19:50:22
404,chern',53.4523,36.9145,53.4,78,12,4.43,RU,2023-08-29 19:50:23
405,bereznik,62.8551,42.7072,53.1,89,100,3.31,RU,2023-08-29 19:50:23
406,brokopondo,4.75,-55.1667,79.7,82,0,10.78,SR,2023-08-29 19:50:23
407,pskov,57.8136,28.3496,58.91,88,0,4.47,RU,2023-08-29 19:50:24
408,anloga,5.7947,0.8973,76.75,90,68,15.68,GH,2023-08-29 19:50:24
409,srandakan,-7.9386,110.2506,82.15,60,35,9.6,ID,2023-08-29 19:50:24
410,bikenibeu village,1.3673,173.1241,85.96,74,40,3.44,KI,2023-08-29 19:50:24
411,mont-tremblant,46.1949,-74.6264,59.49,88,45,1.14,CA,2023-08-29 19:49:16
412,nizhnesortymskiy,62.4397,71.7603,52.38,92,100,7.31,RU,2023-08-29 19:50:25
413,ad dabbah,18.05,30.95,93.42,23,95,6.76,SD,2023-08-29 19:50:25
414,laguna paiva,-31.3039,-60.6589,53.15,59,0,8.01,AR,2023-08-29 19:50:25
415,nikolayevsk-on-amure,53.1406,140.73,71.13,48,100,6.87,RU,2023-08-29 19:50:25
416,labrador city,52.9463,-66.9114,46.31,93,100,4.61,CA,2023-08-29 19:50:25
417,kelo,9.3086,15.8066,71.01,92,90,5.26,TD,2023-08-29 19:50:26
418,tsarychanka,48.937,34.4786,66.16,49,0,6.87,UA,2023-08-29 19:50:26
419,el alto,-4.2714,-81.2147,67.66,82,0,14.9,PE,2023-08-29 19:50:26
420,howard springs,-12.497,131.047,88.66,32,25,9.57,AU,2023-08-29 19:50:26
421,zeya,53.75,127.2667,75.87,47,100,5.93,RU,2023-08-29 19:50:26
422,smithers,54.7804,-127.1743,70.12,60,100,5.75,CA,2023-08-29 19:50:27
423,roma,43.2128,-75.4557,68.27,91,75,5.75,US,2023-08-29 19:50:27
424,lata,40.1629,-8.3327,58.91,98,95,1.77,PT,2023-08-29 19:50:27
425,taybad,34.74,60.7756,79.79,17,7,7.07,IR,2023-08-29 19:50:27
426,yulinshi,38.2906,109.7494,76.48,32,0,6.87,CN,2023-08-29 19:50:27
427,naze,28.3667,129.4833,83.32,81,13,8.7,JP,2023-08-29 19:41:02
428,zaoyang,32.1272,112.7542,81.55,57,3,6.53,CN,2023-08-29 19:50:28
429,al jawf,29.5,38.75,73.83,57,0,9.04,SA,2023-08-29 19:50:28
430,fort st. john,56.2499,-120.8529,73.29,46,75,4.61,CA,2023-08-29 19:46:27
431,kirensk,57.7853,108.1119,76.84,51,0,3.8,RU,2023-08-29 19:50:28
432,thunder bay,48.4001,-89.3168,48.11,87,0,3.44,CA,2023-08-29 19:45:34
433,granite shoals,30.5891,-98.3839,86.99,41,0,3.44,US,2023-08-29 19:50:29
434,la tuque,47.4334,-72.7824,61.05,88,89,1.14,CA,2023-08-29 19:50:29
435,zouerate,22.7187,-12.4521,90.95,40,11,9.8,MR,2023-08-29 19:50:29
436,peniche,39.3558,-9.3811,63.18,88,15,20.4,PT,2023-08-29 19:50:30
437,bonthe,7.5264,-12.505,75.92,89,100,5.44,SL,2023-08-29 19:50:30
438,tanout,14.9709,8.8879,86.23,51,84,15.26,NE,2023-08-29 19:50:30
439,tobruk,32.0836,23.9764,78.58,78,0,13.73,LY,2023-08-29 19:50:30
440,san-pedro,4.7485,-6.6363,73.51,96,98,4.34,CI,2023-08-29 19:50:30
441,omdurman,15.6445,32.4777,81.5,68,98,25.12,SD,2023-08-29 19:50:31
442,luwuk,-0.9516,122.7875,84.96,56,25,11.25,ID,2023-08-29 19:50:31
443,yeraliyev,43.2,51.65,67.3,47,0,8.7,KZ,2023-08-29 19:50:31
444,el charco,2.4769,-78.1105,77.74,90,6,0.54,CO,2023-08-29 19:50:31
445,partapur,23.6,74.1667,79.23,76,24,6.35,IN,2023-08-29 19:50:31
446,cockburn town,21.4612,-71.1419,84.36,84,100,17.9,TC,2023-08-29 19:40:36
447,san jose del guaviare,2.5729,-72.6459,77.41,83,50,0.87,CO,2023-08-29 19:50:33
448,sarikei,2.1167,111.5167,91.9,55,63,2.66,MY,2023-08-29 19:50:33
449,batangafo,7.3008,18.2833,69.49,97,100,3.78,CF,2023-08-29 19:50:33
450,nicoya,10.1483,-85.452,78.24,93,100,2.06,CR,2023-08-29 19:36:26
451,hagere selam,6.4833,38.5167,48.04,97,100,3.85,ET,2023-08-29 19:50:34
452,kitob,39.0843,66.8332,79.52,23,39,3.33,UZ,2023-08-29 19:50:34
453,dongsheng,39.8161,109.9776,69.98,28,0,7.16,CN,2023-08-29 19:50:34
454,barcelos,41.5388,-8.6151,61.83,95,69,5.68,PT,2023-08-29 19:50:35
455,motygino,58.1831,94.7592,63.79,79,100,5.08,RU,2023-08-29 19:50:35
456,rikaze,29.25,88.8833,61.97,41,7,2.46,CN,2023-08-29 19:50:35
457,sirte,31.2089,16.5887,77.76,70,40,9.26,LY,2023-08-29 19:50:36
458,melong,5.1218,9.9614,66.74,98,99,2.21,CM,2023-08-29 19:50:36
459,rudbar,30.15,62.6,91.89,14,0,4.36,AF,2023-08-29 19:50:36
460,kill devil hills,36.0307,-75.676,79.65,90,0,0.0,US,2023-08-29 19:50:36
461,north bend,43.4065,-124.2243,66.11,88,40,6.91,US,2023-08-29 19:50:36
462,carutapera,-1.195,-46.02,77.02,85,0,6.17,BR,2023-08-29 19:50:37
463,dryden,49.7833,-92.7503,57.49,82,0,5.75,CA,2023-08-29 19:50:37
464,armacao de buzios,-22.7469,-41.8817,69.85,93,100,10.67,BR,2023-08-29 19:50:37
465,swift current,50.2834,-107.8014,79.61,31,0,17.27,CA,2023-08-29 19:50:17
466,tidjikja,18.5564,-11.4271,75.9,77,97,15.68,MR,2023-08-29 19:50:37
467,plastun,44.7561,136.2939,61.39,98,100,7.07,RU,2023-08-29 19:50:38
468,karratha,-20.7377,116.8463,87.96,19,4,8.23,AU,2023-08-29 19:50:38
469,quinhamel,11.8833,-15.85,78.06,86,100,7.0,GW,2023-08-29 19:50:38
470,nizhniy lomov,53.5304,43.6766,49.69,69,78,2.73,RU,2023-08-29 19:50:38
471,esil,51.9556,66.4042,51.71,68,14,14.36,KZ,2023-08-29 19:50:38
472,naama,33.2667,-0.3167,70.93,28,36,9.01,DZ,2023-08-29 19:50:39
473,likiep,9.8251,169.3107,83.66,74,97,19.17,MH,2023-08-29 19:50:39
474,villamontes,-21.25,-63.5,65.37,40,2,5.03,BO,2023-08-29 19:40:55
475,mount pearl,47.5166,-52.7813,58.62,84,75,12.66,CA,2023-08-29 19:50:39
476,maragogi,-9.0122,-35.2225,75.88,83,15,3.44,BR,2023-08-29 19:40:52
477,fort bragg,35.139,-79.006,74.62,98,75,1.01,US,2023-08-29 19:50:39
478,flin flon,54.7682,-101.865,65.68,69,2,6.76,CA,2023-08-29 19:40:57
479,talara,-4.5772,-81.2719,70.56,88,0,16.28,PE,2023-08-29 19:50:40
480,kerikeri,-35.2268,173.9474,62.91,73,98,1.01,NZ,2023-08-29 19:50:40
481,nabire,-3.3667,135.4833,85.68,70,14,2.82,ID,2023-08-29 19:50:40
482,basoko,1.2391,23.616,69.58,96,28,4.88,CD,2023-08-29 19:50:40
483,lubango,-14.9172,13.4925,64.26,42,36,4.61,AO,2023-08-29 19:50:41
484,charters towers,-20.1,146.2667,81.07,23,6,2.73,AU,2023-08-29 19:50:41
485,wad medani,14.4012,33.5199,76.71,79,100,21.65,SD,2023-08-29 19:50:41
486,paraibano,-6.4331,-43.9836,75.52,47,2,1.32,BR,2023-08-29 19:50:41
487,kristianstad,56.0313,14.1524,55.54,100,100,3.44,SE,2023-08-29 19:50:41
488,las varillas,-31.8721,-62.7195,53.33,42,0,9.04,AR,2023-08-29 19:49:13
489,prince albert,53.2001,-105.7677,71.55,73,0,13.8,CA,2023-08-29 19:47:33
490,kuressaare,58.2481,22.5039,60.22,98,40,9.22,EE,2023-08-29 19:50:42
491,nykvarn,59.8,18.3,54.16,91,100,3.42,SE,2023-08-29 19:50:42
492,ben tre,10.2333,106.3833,88.61,59,100,10.85,VN,2023-08-29 19:50:42
493,taseyevo,57.2169,94.8978,64.53,78,100,6.55,RU,2023-08-29 19:50:42
494,ladysmith,48.9829,-123.8194,61.2,90,100,4.61,CA,2023-08-29 19:50:43
495,oamaru,-45.0784,170.9801,55.24,56,26,6.96,NZ,2023-08-29 19:50:43
496,huruta,8.15,39.35,58.14,87,98,3.53,ET,2023-08-29 19:50:43
497,xiazhen,34.8022,117.1117,80.33,57,0,1.3,CN,2023-08-29 19:50:43
498,markovo,57.3206,107.0881,77.83,51,1,4.38,RU,2023-08-29 19:50:43
499,santa cruz,-17.8,-63.1667,72.86,78,40,2.3,BO,2023-08-29 19:50:05
500,malango,-2.9627,119.9001,81.3,49,9,5.1,ID,2023-08-29 19:40:50
501,fayroz koh,34.5195,65.2509,62.19,17,0,0.2,AF,2023-08-29 19:50:44
502,nishon tumani,38.694,65.6751,70.05,37,0,9.22,UZ,2023-08-29 19:50:44
503,makoua,0.0069,15.6333,69.62,94,98,2.93,CG,2023-08-29 19:50:44
504,essaouira,31.5125,-9.77,71.1,78,0,8.05,MA,2023-08-29 19:50:45
505,yasnyy,51.0333,59.8742,48.36,87,100,16.55,RU,2023-08-29 19:50:45
506,antigonish,45.6169,-61.9986,64.63,97,100,7.02,CA,2023-08-29 19:50:45
507,itamaraca,-7.7478,-34.8256,80.65,83,14,4.76,BR,2023-08-29 19:50:45
508,kruisfontein,-34.0033,24.7314,65.91,18,0,11.65,ZA,2023-08-29 19:50:45
509,fiambala,-27.6871,-67.6149,55.2,21,1,6.91,AR,2023-08-29 19:50:46
510,salamanca,40.8333,-6.0,52.43,71,83,4.74,ES,2023-08-29 19:50:46
511,matoury,4.8483,-52.3317,76.96,94,0,0.0,GF,2023-08-29 19:46:05
512,maughold,54.2988,-4.3184,54.63,86,42,19.19,IM,2023-08-29 19:50:46
513,scottburgh,-30.2867,30.7532,59.56,80,0,9.19,ZA,2023-08-29 19:50:46
514,konarka,19.9,86.1167,86.4,63,100,7.83,IN,2023-08-29 19:50:47
515,ban karon,7.8477,98.2985,86.79,69,90,16.49,TH,2023-08-29 19:50:47
516,kasane,-17.8167,25.15,54.43,50,0,8.21,BW,2023-08-29 19:50:47
517,byron bay,-28.65,153.6167,74.71,56,2,10.8,AU,2023-08-29 19:40:52
518,la passe,45.5549,-0.8967,52.03,86,37,4.59,FR,2023-08-29 19:50:47
519,marica,-22.9194,-42.8186,67.91,93,98,3.67,BR,2023-08-29 19:50:48
520,burang,30.25,81.1667,50.14,43,1,2.37,CN,2023-08-29 19:50:48
521,lodja,-3.4833,23.4333,69.22,84,100,0.63,CD,2023-08-29 19:50:48
522,sao miguel do araguaia,-13.275,-50.1628,80.8,56,19,5.93,BR,2023-08-29 19:50:48
523,la'ie,21.6477,-157.9253,82.65,72,22,5.01,US,2023-08-29 19:50:49
524,chiquimula,14.8,-89.55,74.61,96,100,2.1,GT,2023-08-29 19:50:49
525,aberdeen,57.1437,-2.0981,49.87,94,75,16.11,GB,2023-08-29 19:50:49
526,pahrump,36.2083,-115.9839,94.05,17,0,1.99,US,2023-08-29 19:50:49
527,undurkhaan,47.3194,110.6556,66.34,57,78,6.82,MN,2023-08-29 19:50:49
528,greymouth,-42.4667,171.2,48.25,86,98,0.4,NZ,2023-08-29 19:49:17
529,taoudenni,22.6783,-3.9836,91.89,34,4,13.58,ML,2023-08-29 19:50:50
530,saint-pierre,-21.3393,55.4781,67.64,94,100,11.5,RE,2023-08-29 19:50:50
531,kidal,18.4411,1.4078,88.84,35,100,12.19,ML,2023-08-29 19:50:50
532,puerto deseado,-47.7503,-65.8938,46.11,65,44,25.14,AR,2023-08-29 19:50:50
533,trinidad,-14.8333,-64.9,80.37,48,9,1.21,BO,2023-08-29 19:50:51
534,coxen hole,16.3244,-86.5366,83.48,89,0,4.61,HN,2023-08-29 19:50:51
535,tarawa,1.419,172.984,86.09,74,40,3.44,KI,2023-08-29 19:50:51
536,merizo village,13.2658,144.6691,84.58,84,100,18.41,GU,2023-08-29 19:50:51
