City ID,City,Latitude,Longitude,Temperature,Humidity,Cloudiness,Wind Speed,Country,Date/Time
0,lazaro cardenas,17.9583,-102.2,84.56,71,93,1.07,MX,2023-08-27 08:53:57
1,chuhar jamali,24.3895,67.9923,81.91,67,71,18.99,PK,2023-08-27 08:53:57
2,invercargill,-46.4,168.35,35.02,94,39,4.0,NZ,2023-08-27 08:53:58
3,ialibu,-6.2821,143.9935,56.66,100,100,0.98,PG,2023-08-27 08:53:58
4,grytviken,-54.2811,-36.5092,29.08,89,93,11.34,GS,2023-08-27 08:53:58
5,aasiaat,68.7098,-52.8699,39.15,79,98,7.63,GL,2023-08-27 08:53:58
6,tromso,69.6496,18.957,60.39,87,40,10.36,NO,2023-08-27 08:53:59
7,lompoc,34.6391,-120.4579,71.49,84,100,1.01,US,2023-08-27 08:53:59
8,altay,47.8667,88.1167,76.66,22,100,9.26,CN,2023-08-27 08:53:59
9,ribeira grande,38.5167,-28.7,75.6,83,75,25.32,PT,2023-08-27 08:53:59
10,nalut,30.3333,10.85,104.58,13,89,6.71,LY,2023-08-27 08:54:00
11,buala,-8.145,159.5921,77.59,83,83,5.82,SB,2023-08-27 08:54:00
12,bilibino,68.0546,166.4372,45.37,93,100,1.48,RU,2023-08-27 08:54:00
13,thompson,55.7435,-97.8558,55.56,94,100,14.97,CA,2023-08-27 08:54:00
14,alice springs,-23.7,133.8833,47.75,34,4,5.75,AU,2023-08-27 08:50:57
15,enewetak,11.3474,162.3373,81.12,82,100,20.98,MH,2023-08-27 08:54:01
16,edinburgh of the seven seas,-37.0676,-12.3116,56.08,92,100,4.21,SH,2023-08-27 08:54:01
17,blackmans bay,-43.0167,147.3167,37.15,92,0,4.27,AU,2023-08-27 08:54:01
18,afaahiti,-17.75,-149.2833,75.07,66,38,16.55,PF,2023-08-27 08:54:02
19,iqaluit,63.7506,-68.5145,45.7,45,40,16.11,CA,2023-08-27 08:54:02
20,haiku-pauwela,20.9219,-156.3051,70.39,79,75,11.5,US,2023-08-27 08:54:02
21,akrehamn,59.2667,5.1833,59.36,82,75,5.75,NO,2023-08-27 08:46:28
22,port-aux-francais,-49.35,70.2167,43.54,96,100,42.1,TF,2023-08-27 08:41:58
23,tiksi,71.6872,128.8694,52.43,93,54,4.56,RU,2023-08-27 08:54:03
24,albany,42.6001,-73.9662,68.04,77,72,1.99,US,2023-08-27 08:46:38
25,udachny,66.4167,112.4,66.45,48,32,5.68,RU,2023-08-27 08:54:03
26,abasha,42.2096,42.2211,80.82,79,0,4.54,GE,2023-08-27 08:54:04
27,adamstown,-25.066,-130.1015,67.37,70,75,13.04,PN,2023-08-27 08:45:36
28,vorgashor,67.5833,63.95,41.67,94,98,6.8,RU,2023-08-27 08:54:04
29,fort bragg,35.139,-79.006,88.77,62,0,3.44,US,2023-08-27 08:46:13
30,saint-francois,46.4154,3.9054,69.24,46,0,12.66,FR,2023-08-27 08:54:04
31,talara,-4.5772,-81.2719,75.96,69,0,15.35,PE,2023-08-27 08:54:05
32,uturoa,-16.7333,-151.4333,78.31,69,47,12.77,PF,2023-08-27 08:54:05
33,ginir,7.1333,40.7,70.72,39,6,9.86,ET,2023-08-27 08:54:05
34,morehead city,34.7229,-76.726,87.75,75,75,3.0,US,2023-08-27 08:46:25
35,port alfred,-33.5906,26.891,61.18,77,36,6.49,ZA,2023-08-27 08:54:05
36,sandnessjoen,66.0217,12.6316,68.11,45,0,11.5,NO,2023-08-27 08:51:26
37,ushuaia,-54.8,-68.3,46.06,53,0,2.3,AR,2023-08-27 08:49:47
38,hamilton,39.1834,-84.5333,72.28,77,40,10.36,US,2023-08-27 08:50:11
39,singapur,1.2897,103.8501,82.22,83,75,5.75,SG,2023-08-27 08:54:06
40,hawaiian paradise park,19.5933,-154.9731,69.15,95,100,8.05,US,2023-08-27 08:54:07
41,mahina,-17.5065,-149.489,76.77,69,20,12.66,PF,2023-08-27 08:46:06
42,port elizabeth,-33.918,25.5701,62.89,63,0,4.61,ZA,2023-08-27 08:49:13
43,arraial do cabo,-22.9661,-42.0278,64.26,88,100,4.61,BR,2023-08-27 08:49:26
44,aykhal,66.0,111.5,59.9,56,41,6.29,RU,2023-08-27 08:54:09
45,havre,49.5833,0.3333,62.56,77,100,18.41,FR,2023-08-27 08:54:10
46,betio village,1.358,172.9211,80.64,68,89,7.2,KI,2023-08-27 08:54:10
47,whitehorse,60.7161,-135.0538,57.43,70,20,13.8,CA,2023-08-27 08:54:10
48,nouadhibou,20.931,-17.0347,89.58,51,7,17.27,MR,2023-08-27 08:54:10
49,isafjordur,66.0755,-23.124,60.84,48,20,9.22,IS,2023-08-27 08:54:11
50,la cruz,23.9167,-106.9,86.92,71,14,0.87,MX,2023-08-27 08:54:11
51,howard springs,-12.497,131.047,71.31,83,57,4.76,AU,2023-08-27 08:54:12
52,stanley,54.868,-1.6985,57.72,93,75,2.3,GB,2023-08-27 08:54:12
53,malabar,-33.9667,151.25,52.95,84,40,4.61,AU,2023-08-27 08:54:12
54,hithadhoo,-0.6,73.0833,82.9,73,97,4.25,MV,2023-08-27 08:54:13
55,kummersbruck,49.4192,11.8883,62.91,95,100,3.0,DE,2023-08-27 08:54:13
56,sanliurfa,37.2128,38.7817,94.87,17,0,10.74,TR,2023-08-27 08:54:13
57,egilsstadir,65.2653,-14.3948,55.31,76,75,5.75,IS,2023-08-27 08:47:28
58,vila franca do campo,37.7167,-25.4333,77.41,68,88,12.57,PT,2023-08-27 08:54:14
59,bamboo flat,11.7,92.7167,82.49,83,40,6.91,IN,2023-08-27 08:54:14
60,guiglo,6.5456,-7.4966,82.22,74,99,4.74,CI,2023-08-27 08:54:15
61,kyshtovka,56.555,76.6271,55.89,76,86,8.3,RU,2023-08-27 08:49:51
62,susuman,62.7833,148.1667,46.83,74,99,2.89,RU,2023-08-27 08:54:15
63,kailua-kona,19.6406,-155.9956,72.57,86,100,10.36,US,2023-08-27 08:50:37
64,anadyr,64.75,177.4833,44.01,75,0,8.01,RU,2023-08-27 08:54:16
65,wailua homesteads,22.0669,-159.378,72.36,86,75,13.8,US,2023-08-27 08:54:16
66,fort abbas,29.1925,72.8536,97.14,32,8,9.22,PK,2023-08-27 08:54:16
67,constantia,44.1833,28.65,83.08,62,0,7.4,RO,2023-08-27 08:54:16
68,xilin hot,43.9667,116.0333,55.58,55,0,6.49,CN,2023-08-27 08:50:51
69,hermanus,-34.4187,19.2345,58.89,72,0,10.56,ZA,2023-08-27 08:54:17
70,nanyuki,0.0167,37.0728,69.1,45,98,3.71,KE,2023-08-27 08:54:17
71,puerto natales,-51.7236,-72.4875,39.36,94,97,5.61,CL,2023-08-27 08:54:17
72,rongelap,11.1635,166.8941,82.44,79,100,19.19,MH,2023-08-27 08:54:17
73,queenstown,-31.8976,26.8753,52.79,36,25,5.26,ZA,2023-08-27 08:46:23
74,bethel,41.3712,-73.414,76.03,69,0,8.05,US,2023-08-27 08:54:18
75,beykonak,36.3257,30.303,81.82,71,0,10.13,TR,2023-08-27 08:54:18
76,keflavik,64.0049,-22.5624,55.83,76,75,17.27,IS,2023-08-27 08:54:18
77,voi,-3.3945,38.563,78.26,49,16,17.83,KE,2023-08-27 08:54:18
78,prince rupert,54.3161,-130.3201,54.27,100,0,0.0,CA,2023-08-27 08:52:06
79,jieshi,22.8134,115.8257,82.92,84,95,5.93,CN,2023-08-27 08:54:19
80,waitangi,-43.9535,-176.5597,42.82,65,100,15.52,NZ,2023-08-27 08:49:52
81,carmen,18.6333,-91.8333,85.19,70,98,9.33,MX,2023-08-27 08:54:01
82,estevan,49.1334,-102.9842,68.2,73,0,8.05,CA,2023-08-27 08:54:19
83,rio grande,-32.035,-52.0986,52.95,53,4,11.72,BR,2023-08-27 08:54:19
84,qui nhon,13.7667,109.2333,83.95,71,99,6.76,VN,2023-08-27 08:54:20
85,west island,-12.1568,96.8225,76.98,78,40,16.11,CC,2023-08-27 08:45:55
86,bairnsdale,-37.8333,147.6167,48.06,96,100,2.26,AU,2023-08-27 08:54:20
87,freetown,8.484,-13.2299,82.11,89,75,13.8,SL,2023-08-27 08:54:20
88,bom jesus,-9.0744,-44.3586,103.55,19,9,3.15,BR,2023-08-27 08:54:20
89,purpe,64.4803,76.6897,50.05,89,54,9.8,RU,2023-08-27 08:54:21
90,mahriz,31.5917,54.4318,88.3,26,0,5.35,IR,2023-08-27 08:54:21
91,marquette,46.5333,-87.6335,61.27,76,2,1.99,US,2023-08-27 08:54:21
92,tymovskoye,50.8456,142.655,51.31,99,100,2.64,RU,2023-08-27 08:54:21
93,gunjur,13.2019,-16.7339,89.67,70,75,11.5,GM,2023-08-27 08:54:22
94,mili,6.0815,171.735,82.47,76,95,10.49,MH,2023-08-27 08:54:22
95,punta arenas,-53.15,-70.9167,39.97,92,100,6.62,CL,2023-08-27 08:53:38
96,alcala de henares,40.4821,-3.36,75.06,27,20,19.57,ES,2023-08-27 08:54:22
97,iskateley,67.6803,53.1512,44.85,90,100,9.37,RU,2023-08-27 08:54:23
98,north mackay,-21.1167,149.1833,62.69,82,7,9.8,AU,2023-08-27 08:54:23
99,happy valley-goose bay,53.3168,-60.3315,53.91,94,100,10.36,CA,2023-08-27 08:54:24
100,yellowknife,62.456,-114.3525,55.45,93,100,16.11,CA,2023-08-27 08:52:02
101,antsiranana,-12.2787,49.2917,75.96,64,75,20.71,MG,2023-08-27 08:54:24
102,beberibe,-4.1797,-38.1306,87.08,57,1,12.59,BR,2023-08-27 08:54:24
103,dingzhou,38.5131,114.9956,68.11,79,93,3.11,CN,2023-08-27 08:46:14
104,margaret river,-33.95,115.0667,59.83,84,25,13.27,AU,2023-08-27 08:54:25
105,simanggang,1.2472,111.4528,77.02,94,100,1.14,MY,2023-08-27 08:54:25
106,cadale,2.7603,46.3222,78.46,83,22,17.9,SO,2023-08-27 08:54:25
107,sidareja,-7.4846,108.7923,68.68,96,12,0.92,ID,2023-08-27 08:54:26
108,rio preto da eva,-2.6994,-59.6997,101.21,27,0,4.9,BR,2023-08-27 08:54:26
109,panevezys,55.7333,24.35,75.13,55,78,4.97,LT,2023-08-27 08:54:26
110,qaqortoq,60.7167,-46.0333,46.94,68,5,6.98,GL,2023-08-27 08:54:26
111,rumonge,-3.9736,29.4386,81.09,51,93,2.48,BI,2023-08-27 08:54:26
112,berdigestyakh,62.0989,126.6992,58.64,73,12,2.73,RU,2023-08-27 08:51:20
113,kaele,10.1092,14.4508,83.03,62,100,4.12,CM,2023-08-27 08:54:27
114,papatowai,-46.5619,169.4708,34.93,87,60,9.42,NZ,2023-08-27 08:54:27
115,wainwright,52.839,-110.8572,70.93,47,10,10.2,CA,2023-08-27 08:54:27
116,karratha,-20.7377,116.8463,69.87,66,1,1.99,AU,2023-08-27 08:54:28
117,dudinka,69.4058,86.1778,51.62,71,100,7.14,RU,2023-08-27 08:54:28
118,merizo village,13.2658,144.6691,78.03,98,100,21.12,GU,2023-08-27 08:54:28
119,georgetown,5.4112,100.3354,82.17,86,20,3.44,MY,2023-08-27 08:53:19
120,el bauga,18.262,33.9081,103.8,22,9,10.8,SD,2023-08-27 08:54:28
121,puerto baquerizo moreno,-0.9,-89.6,79.79,74,40,17.27,EC,2023-08-27 08:46:33
122,salalah,17.0151,54.0924,82.49,83,75,6.91,OM,2023-08-27 08:51:36
123,san patricio,28.017,-97.5169,88.02,50,0,4.9,US,2023-08-27 08:54:29
124,bredasdorp,-34.5322,20.0403,52.92,77,0,6.51,ZA,2023-08-27 08:54:30
125,francistown,-21.17,27.5079,63.09,53,0,19.62,BW,2023-08-27 08:54:30
126,saipan,15.1355,145.701,79.5,94,75,6.91,MP,2023-08-27 08:46:45
127,luderitz,-26.6481,15.1594,76.53,30,0,2.84,NA,2023-08-27 08:54:31
128,nizhnesortymskiy,62.4397,71.7603,51.91,73,79,3.67,RU,2023-08-27 08:54:31
129,torata,-17.0769,-70.8433,73.38,11,5,8.79,PE,2023-08-27 08:54:31
130,vilyuchinsk,52.9306,158.4028,53.26,79,100,4.9,RU,2023-08-27 08:46:20
131,borogontsy,62.6683,131.1683,56.77,84,9,4.41,RU,2023-08-27 08:51:47
132,st. john's,47.5649,-52.7093,65.61,78,75,18.41,CA,2023-08-27 08:44:08
133,fort meade,39.1082,-76.7432,82.8,61,0,6.91,US,2023-08-27 08:54:32
134,kenora,49.8167,-94.4337,65.37,77,75,10.36,CA,2023-08-27 08:54:33
135,junagadh,21.5167,70.4667,78.21,75,73,6.8,IN,2023-08-27 08:54:33
136,new norfolk,-42.7826,147.0587,39.49,97,2,2.55,AU,2023-08-27 08:54:33
137,sittwe,20.15,92.9,80.01,89,96,2.1,MM,2023-08-27 08:54:33
138,callao,-12.0667,-77.15,70.09,68,100,5.75,PE,2023-08-27 08:46:46
139,port douglas,-16.4833,145.4667,69.66,79,66,15.17,AU,2023-08-27 08:54:34
140,swakopmund,-22.6833,14.5333,58.98,82,7,10.0,NA,2023-08-27 08:54:34
141,puerto ayora,-0.7393,-90.3518,77.56,90,77,8.01,EC,2023-08-27 08:54:34
142,burgersdorp,-30.9977,26.3286,55.78,25,0,10.45,ZA,2023-08-27 08:54:34
143,sinah,36.809,43.0389,94.96,14,0,4.54,IQ,2023-08-27 08:51:19
144,saki,8.6667,3.3833,74.88,90,100,3.09,NG,2023-08-27 08:54:35
145,road town,18.4167,-64.6167,87.84,74,20,8.05,VG,2023-08-27 08:46:16
146,cockburn town,21.4612,-71.1419,84.07,73,10,12.48,TC,2023-08-27 08:50:13
147,port mathurin,-19.6833,63.4167,72.91,77,2,24.54,MU,2023-08-27 08:54:35
148,bandon,51.7469,-8.7425,67.59,73,84,18.61,IE,2023-08-27 08:54:35
149,olonkinbyen,70.9221,-8.7187,44.06,93,95,15.7,SJ,2023-08-27 08:54:36
150,kununurra,-15.7667,128.7333,64.38,68,6,0.0,AU,2023-08-27 08:54:36
151,daru,-9.0763,143.2092,75.9,77,96,16.55,PG,2023-08-27 08:54:36
152,nieuw amsterdam,5.8833,-55.0833,97.02,60,71,8.81,SR,2023-08-27 08:54:37
153,remire-montjoly,4.9167,-52.2667,91.44,62,75,5.75,GF,2023-08-27 08:49:44
154,puerto aysen,-45.4,-72.7,44.91,99,99,5.61,CL,2023-08-27 08:54:37
155,panguipulli,-39.6333,-72.3333,52.03,66,13,3.38,CL,2023-08-27 08:54:37
156,avarua,-21.2078,-159.775,69.85,73,40,6.91,CK,2023-08-27 08:54:29
157,longyearbyen,78.2186,15.6401,46.24,93,75,10.36,SJ,2023-08-27 08:54:38
158,chipinge,-20.1883,32.6236,52.57,84,98,5.95,ZW,2023-08-27 08:51:59
159,lyubinskiy,55.1542,72.6925,58.68,95,100,6.78,RU,2023-08-27 08:54:38
160,saldanha,-33.0117,17.9442,68.05,74,0,10.07,ZA,2023-08-27 08:54:38
161,hadibu,12.65,54.0333,79.93,80,100,16.26,YE,2023-08-27 08:54:38
162,kikwit,-5.041,18.8162,99.5,21,88,3.04,CD,2023-08-27 08:54:39
163,kongsberg,59.6652,9.6465,64.17,73,96,2.82,NO,2023-08-27 08:54:39
164,mejit,10.2753,170.8646,81.9,80,97,16.22,MH,2023-08-27 08:46:57
165,'alaqahdari dishu,30.4374,63.313,94.8,15,0,10.8,AF,2023-08-27 08:54:40
166,utrik,11.2278,169.8474,82.02,81,100,18.25,MH,2023-08-27 08:54:40
167,katsuura,35.1333,140.3,77.76,81,100,4.52,JP,2023-08-27 08:47:08
168,krasnaya gora,52.9995,31.6023,76.17,66,99,3.76,RU,2023-08-27 08:54:40
169,karatas,36.582,35.3701,87.94,73,16,16.11,TR,2023-08-27 08:54:40
170,jamestown,42.097,-79.2353,64.85,72,100,5.75,US,2023-08-27 08:54:41
171,taoudenni,22.6783,-3.9836,110.84,15,50,10.94,ML,2023-08-27 08:54:41
172,college,64.8569,-147.8028,58.75,84,75,4.61,US,2023-08-27 08:54:41
173,browns mills,39.9726,-74.5829,80.87,60,0,11.5,US,2023-08-27 08:54:41
174,kosciusko,33.0576,-89.5876,73.02,65,81,5.14,US,2023-08-27 08:54:41
175,sao jose da coroa grande,-8.8978,-35.1478,83.32,71,9,12.35,BR,2023-08-27 08:52:01
176,mandalgovi,45.7625,106.2708,58.1,59,4,9.1,MN,2023-08-27 08:54:42
177,kapit,2.0167,112.9333,74.07,99,100,0.4,MY,2023-08-27 08:54:42
178,pisco,-13.7,-76.2167,68.05,73,100,3.44,PE,2023-08-27 08:54:42
179,ust'-kut,56.7938,105.7672,59.88,95,83,2.08,RU,2023-08-27 08:50:07
180,mermoz boabab,14.7065,-17.4758,87.58,74,75,18.41,SN,2023-08-27 08:50:28
181,oranjemund,-28.55,16.4333,74.44,25,0,10.96,NA,2023-08-27 08:47:00
182,uberlandia,-18.9186,-48.2772,79.81,53,20,6.91,BR,2023-08-27 08:54:43
183,fort st. john,56.2499,-120.8529,60.69,72,0,5.75,CA,2023-08-27 08:54:43
184,trevelin,-43.0858,-71.4639,40.48,66,99,5.14,AR,2023-08-27 08:54:44
185,winnemucca,40.973,-117.7357,64.45,36,0,0.0,US,2023-08-27 08:54:44
186,umm kaddadah,13.6017,26.6876,91.76,34,100,2.33,SD,2023-08-27 08:51:09
187,porbandar,21.6422,69.6093,81.55,73,68,14.27,IN,2023-08-27 08:54:44
188,santana,-0.0583,-51.1817,89.78,58,40,11.5,BR,2023-08-27 08:54:45
189,petropavlovsk-kamchatsky,53.0452,158.6483,52.39,87,0,6.71,RU,2023-08-27 08:54:45
190,gulf shores,30.246,-87.7008,93.04,74,20,4.0,US,2023-08-27 08:46:22
191,faya-largeau,17.9257,19.1043,112.89,9,0,4.61,TD,2023-08-27 08:54:45
192,le marin,14.4721,-60.8697,91.31,62,75,10.36,MQ,2023-08-27 08:54:45
193,palmerston,-12.486,130.9833,71.56,83,54,0.0,AU,2023-08-27 08:54:46
194,kingston,17.997,-76.7936,90.1,69,20,4.61,JM,2023-08-27 08:46:28
195,anna regina,7.2644,-58.5077,87.96,63,7,10.11,GY,2023-08-27 08:54:46
196,ormara,25.2088,64.6357,80.08,81,39,16.15,PK,2023-08-27 08:54:46
197,silver city,32.7701,-108.2803,80.38,41,0,11.5,US,2023-08-27 08:54:46
198,wenceslau braz,-23.8739,-49.8028,62.98,52,39,13.47,BR,2023-08-27 08:51:31
199,hasaki,35.7333,140.8333,77.49,82,100,9.37,JP,2023-08-27 08:54:47
200,kitimat,54.0524,-128.6534,59.38,62,7,1.23,CA,2023-08-27 08:54:47
201,takoradi,4.8845,-1.7554,78.42,82,65,12.44,GH,2023-08-27 08:51:51
202,twon-brass,4.3151,6.2418,76.42,90,100,7.96,NG,2023-08-27 08:50:19
203,antalaha,-14.9003,50.2788,73.54,80,0,12.26,MG,2023-08-27 08:51:31
204,porto novo,6.4965,2.6036,82.22,74,100,9.4,BJ,2023-08-27 08:51:23
205,lihue,21.9789,-159.3672,74.89,80,75,13.8,US,2023-08-27 08:54:48
206,kapa'a,22.0752,-159.319,73.92,85,75,13.8,US,2023-08-27 08:54:48
207,madimba,-10.4,40.3333,75.87,84,11,9.4,TZ,2023-08-27 08:54:48
208,westport,41.1415,-73.3579,77.47,67,0,9.22,US,2023-08-27 08:45:41
209,vila velha,-20.3297,-40.2925,64.94,98,100,10.36,BR,2023-08-27 08:54:49
210,fortuna,40.5982,-124.1573,54.91,98,100,0.0,US,2023-08-27 08:49:47
211,kidal,18.4411,1.4078,100.96,25,29,12.48,ML,2023-08-27 08:54:49
212,hinton,53.4001,-117.5857,67.3,49,22,4.21,CA,2023-08-27 08:45:49
213,lensk,60.7253,114.9278,57.45,66,1,2.93,RU,2023-08-27 08:54:50
214,saint-denis,48.9167,2.3333,69.21,60,75,12.66,FR,2023-08-27 08:54:50
215,itaituba,-4.2761,-55.9836,96.96,41,20,5.75,BR,2023-08-27 08:52:00
216,yuanlin,30.4151,112.8859,66.52,89,100,14.5,CN,2023-08-27 08:54:50
217,buka,40.8108,69.1986,66.56,68,73,7.2,UZ,2023-08-27 08:54:51
218,kodiak,57.79,-152.4072,56.71,82,75,8.05,US,2023-08-27 08:54:51
219,karasuk,53.7377,78.0403,65.46,62,100,10.4,RU,2023-08-27 08:54:51
220,genhe,50.7833,121.5167,48.76,69,51,2.19,CN,2023-08-27 08:54:51
221,talaja,21.35,72.05,82.11,68,56,15.28,IN,2023-08-27 08:54:51
222,sarkisla,39.3519,36.4098,79.14,23,0,7.05,TR,2023-08-27 08:54:52
223,amos,48.5669,-78.1162,64.96,44,0,3.18,CA,2023-08-27 08:51:22
224,lebu,-37.6167,-73.65,55.18,56,42,7.76,CL,2023-08-27 08:54:53
225,labytnangi,66.6572,66.4183,47.01,70,90,4.27,RU,2023-08-27 08:54:53
226,lucapa,-8.4192,20.7447,92.71,18,40,1.72,AO,2023-08-27 08:54:54
227,mongar,27.2747,91.2396,64.09,99,100,1.19,BT,2023-08-27 08:54:54
228,nizhneudinsk,54.9076,99.0276,60.62,95,55,4.07,RU,2023-08-27 08:54:54
229,huarmey,-10.0681,-78.1522,71.55,71,56,7.63,PE,2023-08-27 08:54:54
230,mount pearl,47.5166,-52.7813,64.63,78,75,18.41,CA,2023-08-27 08:46:09
231,jianguang,28.1938,115.7836,77.94,95,100,5.68,CN,2023-08-27 08:54:55
232,kalemie,-5.9475,29.1947,81.23,40,10,3.98,CD,2023-08-27 08:54:55
233,horta,38.5333,-28.6333,75.02,82,75,25.32,PT,2023-08-27 08:54:55
234,peterhead,57.5058,-1.7981,61.2,78,77,12.03,GB,2023-08-27 08:54:56
235,pagar alam,-4.0167,103.2667,68.45,96,93,1.86,ID,2023-08-27 08:54:56
236,amahai,-3.3333,128.9167,76.23,91,79,12.15,ID,2023-08-27 08:54:56
237,crane,31.3974,-102.3501,87.91,40,30,12.06,US,2023-08-27 08:46:00
238,klyuchi,52.2667,79.1667,64.6,71,100,7.34,RU,2023-08-27 08:47:08
239,tazacorte,28.629,-17.9293,81.57,69,20,17.27,ES,2023-08-27 08:46:41
240,ibeto,10.4854,5.145,74.77,93,100,6.82,NG,2023-08-27 08:54:57
241,sayat,38.7839,63.8803,75.07,25,1,17.07,TM,2023-08-27 08:51:01
242,lyskovo,56.0328,45.0422,54.5,73,100,10.2,RU,2023-08-27 08:54:57
243,yeniseysk,58.4497,92.1703,58.57,65,100,4.68,RU,2023-08-27 08:54:58
244,antofagasta,-23.65,-70.4,65.48,55,2,6.17,CL,2023-08-27 08:51:10
245,kudahuvadhoo,2.6708,72.8944,83.14,73,62,5.97,MV,2023-08-27 08:54:58
246,ulsteinvik,62.3432,5.8487,57.83,92,100,7.0,NO,2023-08-27 08:54:58
247,port lincoln,-34.7333,135.8667,53.4,75,94,7.63,AU,2023-08-27 08:54:58
248,muisne,0.6,-80.0333,81.07,78,98,7.61,EC,2023-08-27 08:54:59
249,zhashkiv,49.2454,30.1102,86.18,37,78,6.51,UA,2023-08-27 08:54:59
250,bel ombre,-4.6167,55.4167,80.44,83,40,9.22,SC,2023-08-27 08:50:17
251,ajdabiya,30.7554,20.2263,85.42,53,0,14.23,LY,2023-08-27 08:54:59
252,barghat,22.0333,79.7167,72.54,86,33,7.09,IN,2023-08-27 08:55:00
253,talnakh,69.4865,88.3972,51.21,67,99,6.29,RU,2023-08-27 08:55:00
254,ust-nera,64.5667,143.2,52.25,85,100,4.07,RU,2023-08-27 08:46:16
255,nelson bay,-32.7167,152.15,53.78,94,48,4.0,AU,2023-08-27 08:55:00
256,bressuire,46.9167,-0.5,71.96,52,86,8.9,FR,2023-08-27 08:55:00
257,fortaleza,-3.7227,-38.5247,87.93,62,20,11.5,BR,2023-08-27 08:55:01
258,novodvinsk,64.4165,40.8122,52.02,61,100,5.37,RU,2023-08-27 08:50:34
259,tura,25.5198,90.2201,73.04,96,95,4.41,IN,2023-08-27 08:46:02
260,vernon,50.2581,-119.2691,62.02,63,0,3.44,CA,2023-08-27 08:52:34
261,dzhalagash,45.0833,64.6667,67.23,40,86,13.18,KZ,2023-08-27 08:55:01
262,quellon,-43.1167,-73.6167,50.25,76,100,19.57,CL,2023-08-27 08:50:12
263,progreso,21.2833,-89.6667,91.11,76,66,9.69,MX,2023-08-27 08:46:43
264,severo-yeniseyskiy,60.3725,93.0408,49.55,74,95,3.49,RU,2023-08-27 08:47:18
265,greenville,35.6127,-77.3663,79.3,100,75,0.0,US,2023-08-27 08:53:35
266,morant bay,17.8815,-76.4093,89.22,67,69,3.33,JM,2023-08-27 08:55:02
267,cabo san lucas,22.8909,-109.9124,88.18,68,18,5.48,MX,2023-08-27 08:50:49
268,nizhniy odes,63.6445,54.856,42.64,96,100,4.27,RU,2023-08-27 08:55:03
269,papao,-17.75,-149.55,76.68,66,30,14.63,PF,2023-08-27 08:55:03
270,kirakira,-10.4544,161.9205,77.34,85,100,9.06,SB,2023-08-27 08:55:04
271,bantay,17.5847,120.3892,78.12,88,95,2.91,PH,2023-08-27 08:55:04
272,pacific grove,36.6177,-121.9166,61.07,90,100,11.99,US,2023-08-27 08:52:08
273,carnarvon,-24.8667,113.6333,67.57,67,0,8.86,AU,2023-08-27 08:55:05
274,bikenibeu village,1.3673,173.1241,80.56,83,75,4.61,KI,2023-08-27 08:55:05
275,nova sintra,14.8667,-24.7167,77.05,76,24,4.79,CV,2023-08-27 08:47:23
276,leominster,42.5251,-71.7598,72.32,74,100,1.99,US,2023-08-27 08:52:41
277,inhambane,-23.865,35.3833,71.58,60,40,23.02,MZ,2023-08-27 08:45:49
278,grand falls-windsor,48.9332,-55.6649,67.5,77,100,5.01,CA,2023-08-27 08:55:06
279,tamanrasset,22.785,5.5228,94.91,16,40,12.66,DZ,2023-08-27 08:51:11
280,las palmas,28.4204,-14.0131,77.79,65,0,24.16,ES,2023-08-27 08:55:07
281,sao vicente,-23.9631,-46.3919,62.78,56,100,3.44,BR,2023-08-27 08:50:06
282,pemangkat,1.1667,108.9667,79.81,82,100,7.72,ID,2023-08-27 08:55:07
283,palmer,42.1584,-72.3287,74.05,64,40,4.61,US,2023-08-27 08:55:07
284,mana,5.6592,-53.7767,88.77,61,52,9.91,GF,2023-08-27 08:55:08
285,el nido,11.1858,119.3956,81.95,84,95,19.6,PH,2023-08-27 08:55:08
286,fale old settlement,-9.3852,-171.2468,81.77,77,87,9.66,TK,2023-08-27 08:55:08
287,nuuk,64.1835,-51.7216,45.21,81,75,26.46,GL,2023-08-27 08:50:37
288,port-vila,-17.7338,168.3219,70.34,71,100,10.02,VU,2023-08-27 08:55:09
289,bardai,11.65,7.2333,77.81,69,100,8.14,NG,2023-08-27 08:55:09
290,kirando,-7.4167,30.6,83.84,40,20,4.56,TZ,2023-08-27 08:55:09
291,isangel,-19.55,169.2667,68.11,85,100,15.14,VU,2023-08-27 08:50:10
292,lautoka,-17.6167,177.4667,69.66,78,40,9.22,FJ,2023-08-27 08:55:09
293,morondava,-20.2833,44.2833,76.44,73,52,13.96,MG,2023-08-27 08:55:10
294,benghazi,32.1167,20.0667,83.39,67,0,9.82,LY,2023-08-27 08:55:10
295,baikonur,45.6167,63.3167,67.35,42,98,12.82,KZ,2023-08-27 08:55:10
296,lusambo,-4.9667,23.45,92.16,31,95,1.28,CD,2023-08-27 08:55:10
297,usinsk,65.9939,57.5281,43.47,97,100,6.26,RU,2023-08-27 08:55:11
298,masuguru,-11.3667,38.4167,87.89,34,63,6.35,TZ,2023-08-27 08:47:31
299,barcelos,41.5388,-8.6151,76.1,49,63,17.36,PT,2023-08-27 08:55:11
300,pipar,26.3856,73.5378,85.03,50,70,19.35,IN,2023-08-27 08:55:11
301,al khawr,25.7667,51.3167,94.93,44,14,11.27,QA,2023-08-27 08:55:12
302,nadvoitsy,63.8667,34.3167,53.38,70,95,8.5,RU,2023-08-27 08:55:12
303,tianpeng,30.9866,103.9393,77.47,74,99,5.68,CN,2023-08-27 08:55:12
304,bijie,27.3125,105.2942,61.12,68,100,6.2,CN,2023-08-27 08:55:12
305,atafu village,-8.5421,-172.5159,82.49,76,74,13.8,TK,2023-08-27 08:55:13
306,kapuskasing,49.4169,-82.4331,64.4,48,20,9.22,CA,2023-08-27 08:46:27
307,angaur state,6.906,134.13,82.72,83,100,16.96,PW,2023-08-27 08:55:13
308,ilebo,-4.3167,20.5833,94.14,30,65,4.5,CD,2023-08-27 08:51:39
309,labrador city,52.9463,-66.9114,57.11,51,20,6.91,CA,2023-08-27 08:45:13
310,sovetskiy,61.3614,63.5842,49.68,87,95,4.45,RU,2023-08-27 08:52:28
311,saint-pierre,-21.3393,55.4781,73.08,73,75,2.3,RE,2023-08-27 08:55:14
312,farasan,16.7022,42.1183,88.65,81,88,8.48,SA,2023-08-27 08:55:14
313,gombi,10.1614,12.7399,74.66,78,94,4.83,NG,2023-08-27 08:55:14
314,jiaojiang,28.6803,121.4428,81.0,94,100,3.58,CN,2023-08-27 08:55:15
315,babolsar,36.7025,52.6576,80.92,53,3,11.5,IR,2023-08-27 08:55:15
316,mossel bay,-34.1831,22.146,58.93,71,3,9.04,ZA,2023-08-27 08:51:53
317,villa gesell,-37.2639,-56.973,54.05,54,1,3.15,AR,2023-08-27 08:47:07
318,uvalde,29.3669,-99.767,87.1,61,0,0.0,US,2023-08-27 08:55:17
319,saint-joseph,-21.3667,55.6167,71.98,78,39,10.27,RE,2023-08-27 08:55:17
320,rioblanco,3.5308,-75.6806,79.32,40,4,6.06,CO,2023-08-27 08:55:17
321,ha'il,27.5219,41.6907,104.02,11,0,11.5,SA,2023-08-27 08:51:37
322,zunyi,27.6867,106.9072,66.36,87,100,3.38,CN,2023-08-27 08:55:18
323,kvissleby,62.2936,17.375,64.24,77,41,9.04,SE,2023-08-27 08:54:37
324,marica,-22.9194,-42.8186,62.51,85,100,6.82,BR,2023-08-27 08:55:18
325,thunder bay,48.4001,-89.3168,60.71,72,75,2.3,CA,2023-08-27 08:51:49
326,balikpapan,-1.2675,116.8289,81.59,83,75,6.91,ID,2023-08-27 08:55:19
327,kotlas,61.2611,46.6556,44.76,93,90,5.32,RU,2023-08-27 08:55:19
328,chu,43.5983,73.7614,63.45,79,100,11.39,KZ,2023-08-27 08:55:19
329,lhokseumawe,5.1801,97.1507,80.51,83,35,6.73,ID,2023-08-27 08:55:20
330,berezovo,63.9381,65.0419,48.51,68,100,2.57,RU,2023-08-27 08:51:50
331,codrington,-38.2667,141.9667,51.98,84,100,4.12,AU,2023-08-27 08:55:20
332,kyzyl,51.7,94.45,71.76,46,20,5.32,RU,2023-08-27 08:55:20
333,edson,53.5835,-116.4356,53.71,76,0,5.75,CA,2023-08-27 08:55:20
334,lansdowne,39.9382,-75.2719,81.45,57,40,8.05,US,2023-08-27 08:55:21
335,dryden,49.7833,-92.7503,62.89,77,0,10.36,CA,2023-08-27 08:42:52
336,okhotsk,59.3833,143.3,58.53,67,14,6.08,RU,2023-08-27 08:55:21
337,arar,30.9753,41.0381,105.82,9,0,9.22,SA,2023-08-27 08:55:21
338,richards bay,-28.783,32.0377,63.16,73,16,7.9,ZA,2023-08-27 08:55:21
339,guerrero negro,27.9769,-114.0611,73.17,72,10,5.39,MX,2023-08-27 08:47:33
340,sakakah,29.9697,40.2064,103.57,14,0,13.2,SA,2023-08-27 08:55:22
341,possneck,50.6936,11.5923,67.21,69,100,7.78,DE,2023-08-27 08:55:22
342,copsa mica,46.1167,24.25,90.52,21,0,7.09,RO,2023-08-27 08:55:22
343,surab,28.4914,66.2585,80.85,13,1,10.83,PK,2023-08-27 08:55:23
344,chapaev,50.2,51.1667,65.82,48,87,8.52,KZ,2023-08-27 08:55:23
345,keetmanshoop,-26.5833,18.1333,71.74,6,1,15.9,NA,2023-08-27 08:55:23
346,touros,-5.1989,-35.4608,85.21,62,1,12.37,BR,2023-08-27 08:45:47
347,nar'yan-mar,67.6713,53.087,44.98,90,100,9.53,RU,2023-08-27 08:55:24
348,bouarfa,32.53,-1.95,96.4,13,24,11.36,MA,2023-08-27 08:55:24
349,umarga,17.8333,76.6167,81.84,60,100,9.06,IN,2023-08-27 08:55:24
350,galesong,-5.3166,119.3661,73.42,65,2,7.18,ID,2023-08-27 08:49:56
351,kutum,14.2,24.6667,89.38,30,99,8.59,SD,2023-08-27 08:46:52
352,cabedelo,-6.9811,-34.8339,84.87,74,8,8.93,BR,2023-08-27 08:55:25
353,kundiawa,-6.0167,144.9667,62.94,99,100,1.66,PG,2023-08-27 08:55:25
354,erbil,36.1926,44.0106,105.62,11,0,9.22,IQ,2023-08-27 08:55:25
355,vuktyl,63.8567,57.3094,42.84,90,88,4.72,RU,2023-08-27 08:55:26
356,hobyo,5.3505,48.5268,78.75,79,2,26.44,SO,2023-08-27 08:47:11
357,burutu,5.3509,5.5076,78.39,83,100,7.43,NG,2023-08-27 08:50:20
358,mascote,-15.5631,-39.3025,81.91,73,100,3.91,BR,2023-08-27 08:55:26
359,singkil,-7.9855,111.4161,70.74,92,30,4.79,ID,2023-08-27 08:55:26
360,porto velho,-8.7619,-63.9039,91.45,52,0,8.05,BR,2023-08-27 08:51:10
361,klaksvik,62.2266,-6.589,52.72,95,100,6.53,FO,2023-08-27 08:51:59
362,singaraja,-8.112,115.0882,76.69,83,43,3.09,ID,2023-08-27 08:55:27
363,lethem,3.3803,-59.7968,96.87,37,1,5.55,GY,2023-08-27 08:55:27
364,arkhangel'sk,64.5401,40.5433,52.68,58,100,6.08,RU,2023-08-27 08:51:42
365,kodinsk,58.6881,99.1844,55.45,84,51,3.36,RU,2023-08-27 08:55:28
366,manismata,-2.4667,111.0333,74.1,89,15,1.97,ID,2023-08-27 08:55:28
367,bowen,-20.0167,148.2333,62.33,89,3,9.46,AU,2023-08-27 08:55:28
368,al kharijah,25.4514,30.5464,103.66,15,0,13.56,EG,2023-08-27 08:47:00
369,lobujya,27.95,86.8167,37.74,91,87,4.45,NP,2023-08-27 08:55:29
370,mount gambier,-37.8333,140.7667,44.73,96,84,0.4,AU,2023-08-27 08:55:29
371,puerto leguizamo,-0.1934,-74.7819,93.15,47,4,1.45,CO,2023-08-27 08:55:29
372,ilulissat,69.2167,-51.1,50.02,57,20,14.97,GL,2023-08-27 08:55:29
373,greymouth,-42.4667,171.2,37.99,85,27,7.54,NZ,2023-08-27 08:55:29
374,pudukkottai,10.3833,78.8167,89.46,63,100,14.7,IN,2023-08-27 08:50:44
375,tonekabon,36.8163,50.8738,80.55,73,58,5.08,IR,2023-08-27 08:55:30
376,tam ky,15.5667,108.4833,82.47,73,87,4.56,VN,2023-08-27 08:55:30
377,rehoboth,-23.3167,17.0833,74.35,10,10,14.9,NA,2023-08-27 08:55:30
378,el abiodh sidi cheikh,32.893,0.5484,98.62,13,65,18.48,DZ,2023-08-27 08:55:31
379,maceio,-9.6658,-35.7353,87.24,62,40,9.22,BR,2023-08-27 08:43:49
380,shimanovsk,52.0,127.7,51.85,84,97,3.71,RU,2023-08-27 08:55:31
381,marka,1.7159,44.7717,77.23,89,7,16.37,SO,2023-08-27 08:55:31
382,akom ii,2.7833,10.5667,71.73,97,99,3.31,CM,2023-08-27 08:55:32
383,vegreville,53.5001,-112.0518,59.05,88,29,1.14,CA,2023-08-27 08:55:32
384,tofol,5.3248,163.0078,83.43,74,100,11.21,FM,2023-08-27 08:51:36
385,bam,29.106,58.357,93.6,19,73,10.76,IR,2023-08-27 08:55:32
386,siwa oasis,29.2041,25.5195,99.68,21,0,13.04,EG,2023-08-27 08:55:32
387,pedro ii,-4.4247,-41.4586,99.01,17,0,5.84,BR,2023-08-27 08:55:33
388,san pedro pochutla,15.7333,-96.4667,88.72,62,99,3.78,MX,2023-08-27 08:55:33
389,ust'-ordynskiy,52.805,104.7508,57.18,79,5,3.53,RU,2023-08-27 08:55:33
390,brisas de zicatela,15.8369,-97.0419,85.53,66,100,3.04,MX,2023-08-27 08:46:27
391,pachino,36.7186,15.0907,83.88,59,0,14.29,IT,2023-08-27 08:55:34
392,roma,43.2128,-75.4557,65.62,79,100,5.75,US,2023-08-27 08:55:34
393,cooper's town,26.8667,-77.5167,83.39,75,26,9.17,BS,2023-08-27 08:51:09
394,sisimiut,66.9395,-53.6735,44.28,74,100,27.38,GL,2023-08-27 08:55:34
395,san antonio de pale,-1.4014,5.6325,75.52,84,48,11.77,GQ,2023-08-27 08:50:10
396,sur,22.5667,59.5289,88.79,64,86,6.2,OM,2023-08-27 08:55:35
397,choyr,46.3611,108.3611,56.25,74,27,12.68,MN,2023-08-27 08:55:35
398,minas de marcona,-15.2119,-75.1103,65.17,56,24,9.8,PE,2023-08-27 08:55:35
399,parauapebas,-6.0675,-49.9022,91.38,58,40,0.0,BR,2023-08-27 08:55:35
400,faro,37.0194,-7.9322,87.57,18,0,16.11,PT,2023-08-27 08:55:36
401,chonchi,-42.6128,-73.8092,48.11,78,100,8.39,CL,2023-08-27 08:55:36
402,khandyga,62.6667,135.6,50.81,91,41,3.02,RU,2023-08-27 08:55:36
403,sanctuary point,-35.1114,150.629,54.43,94,100,3.22,AU,2023-08-27 08:46:22
404,ust-tsilma,65.441,52.1498,44.69,98,100,5.41,RU,2023-08-27 08:55:36
405,djambala,-2.5447,14.7533,87.51,40,69,7.43,CG,2023-08-27 08:55:37
406,sitka,57.0531,-135.33,58.89,88,100,4.61,US,2023-08-27 08:55:37
407,gafanha da nazare,40.6362,-8.7134,69.93,69,33,21.52,PT,2023-08-27 08:55:37
408,saa,4.3667,11.45,76.35,92,99,2.93,CM,2023-08-27 08:55:37
409,luang prabang,19.8856,102.1347,74.48,98,100,2.26,LA,2023-08-27 08:55:38
410,tsiombe,-25.3,45.4833,69.4,78,52,11.56,MG,2023-08-27 08:55:38
411,macapa,0.0389,-51.0664,89.58,58,40,11.5,BR,2023-08-27 08:55:38
412,puerto armuelles,8.2833,-82.8667,81.09,72,72,1.01,PA,2023-08-27 08:55:39
413,aginskoye,51.1,114.53,54.01,79,50,1.77,RU,2023-08-27 08:55:39
414,banswara,23.55,74.45,77.85,73,60,6.46,IN,2023-08-27 08:55:39
415,thinadhoo,0.5333,72.9333,82.67,71,42,1.83,MV,2023-08-27 08:47:13
416,dawson creek,55.7666,-120.2362,53.24,87,0,0.0,CA,2023-08-27 08:51:24
417,urangan,-25.3,152.9,65.05,76,0,8.41,AU,2023-08-27 08:55:40
418,basse santa su,13.31,-14.2137,89.94,62,100,8.08,GM,2023-08-27 08:55:40
419,carutapera,-1.195,-46.02,87.94,56,18,9.78,BR,2023-08-27 08:55:41
420,mount isa,-20.7333,139.5,64.17,39,0,4.61,AU,2023-08-27 08:49:47
421,juan griego,11.0817,-63.9655,89.73,70,100,12.66,VE,2023-08-27 08:55:41
422,arno,60.1167,18.6333,64.78,60,34,2.59,SE,2023-08-27 08:55:41
423,torghay,49.6339,63.4981,63.09,42,99,15.57,KZ,2023-08-27 08:55:41
424,sao joao da barra,-21.6403,-41.0511,66.29,85,100,10.04,BR,2023-08-27 08:55:42
425,shchyolkino,45.4291,35.8223,78.19,51,0,7.54,UA,2023-08-27 08:55:42
426,kristiansund,63.1115,7.732,59.65,88,75,11.5,NO,2023-08-27 08:46:33
427,kamina,-8.7386,24.9906,87.85,15,5,3.67,CD,2023-08-27 08:55:42
428,refahiye,39.9008,38.7667,72.57,27,0,5.14,TR,2023-08-27 08:55:42
429,la'ie,21.6477,-157.9253,74.48,78,8,5.99,US,2023-08-27 08:55:42
430,kassala,15.451,36.4,93.69,38,21,7.43,SD,2023-08-27 08:55:43
431,griffith,41.5284,-87.4237,70.57,60,0,8.05,US,2023-08-27 08:55:43
432,carbonear,47.7332,-53.2148,66.99,76,98,9.06,CA,2023-08-27 08:55:43
433,palikir - national government center,6.9248,158.1611,75.94,88,100,2.3,FM,2023-08-27 08:47:01
434,tolanaro,-25.0319,46.9987,73.47,83,40,10.36,MG,2023-08-27 08:55:44
435,chibougamau,49.9168,-74.3659,60.42,51,0,6.91,CA,2023-08-27 08:54:48
436,raahe,64.6833,24.4833,63.97,68,98,8.48,FI,2023-08-27 08:55:44
437,altus,34.6381,-99.334,83.55,58,20,13.8,US,2023-08-27 08:50:58
438,aweil,8.7682,27.4002,84.58,63,73,3.11,SS,2023-08-27 08:55:44
439,kasempa,-13.4584,25.8338,86.81,12,8,14.36,ZM,2023-08-27 08:55:45
440,cold lake,54.4502,-110.2017,58.95,94,40,5.75,CA,2023-08-27 08:53:50
441,birzebbuga,35.8258,14.5269,90.28,51,0,12.66,MT,2023-08-27 08:55:45
442,marrakesh,31.6315,-8.0083,96.87,20,20,16.13,MA,2023-08-27 08:55:03
443,kokopo,-4.352,152.2633,77.22,85,94,15.37,PG,2023-08-27 08:55:45
444,banki,20.3833,85.5333,84.31,71,50,4.18,IN,2023-08-27 08:55:45
445,shalqar,47.8333,59.6,63.21,33,71,13.33,KZ,2023-08-27 08:55:46
446,bodri,23.1667,81.4333,75.11,79,48,7.52,IN,2023-08-27 08:55:46
447,san julian,21.0167,-102.1667,66.56,66,57,7.02,MX,2023-08-27 08:55:46
448,tazovsky,67.4667,78.7,50.41,95,100,7.54,RU,2023-08-27 08:46:02
449,el granada,37.5027,-122.4694,59.45,89,100,5.75,US,2023-08-27 08:55:47
450,mora,11.0461,14.1401,76.89,75,100,1.43,CM,2023-08-27 08:55:47
451,dompu,-8.5356,118.4622,70.32,95,13,2.3,ID,2023-08-27 08:55:47
452,opuwo,-18.0607,13.84,89.29,9,0,11.07,NA,2023-08-27 08:46:46
453,ratanpur,22.3,82.1667,78.57,74,43,5.3,IN,2023-08-27 08:55:48
454,shingu,33.7333,135.9833,76.08,89,82,4.34,JP,2023-08-27 08:55:48
455,la passe,45.5549,-0.8967,74.01,58,9,18.92,FR,2023-08-27 08:55:48
456,la ronge,55.1001,-105.2842,61.05,77,100,10.36,CA,2023-08-27 08:55:48
457,funafuti,-8.5243,179.1942,82.71,77,92,11.9,TV,2023-08-27 08:55:49
458,marolambo,-20.05,48.1167,64.0,97,12,0.56,MG,2023-08-27 08:55:49
459,santa cruz,-17.8,-63.1667,75.25,27,75,14.97,BO,2023-08-27 08:54:51
460,kerikeri,-35.2268,173.9474,49.91,92,42,3.74,NZ,2023-08-27 08:55:49
461,peace river,56.2501,-117.286,60.66,96,0,3.44,CA,2023-08-27 08:47:29
462,mar del plata,-38.0023,-57.5575,51.13,61,0,17.0,AR,2023-08-27 08:55:50
463,menongue,-14.6585,17.691,91.18,7,4,8.1,AO,2023-08-27 08:55:50
464,jiangyou,31.7667,104.7167,73.13,77,100,1.74,CN,2023-08-27 08:55:50
465,komsomolets,53.7453,62.0708,56.73,59,80,4.68,KZ,2023-08-27 08:55:50
466,meulaboh,4.1363,96.1285,79.41,81,100,0.98,ID,2023-08-27 08:47:13
467,taseyevo,57.2169,94.8978,59.2,77,96,4.05,RU,2023-08-27 08:55:51
468,xunchang,28.4543,104.715,69.85,79,100,3.44,CN,2023-08-27 08:55:51
469,port augusta,-32.5,137.7667,49.78,88,59,5.86,AU,2023-08-27 08:55:51
470,odiongan,12.4017,121.9919,81.01,83,100,24.61,PH,2023-08-27 08:55:51
471,mogadishu,2.0371,45.3438,77.59,88,11,16.89,SO,2023-08-27 08:55:12
472,sungailiat,-1.85,106.1333,80.24,77,80,12.57,ID,2023-08-27 08:55:52
473,aars,56.804,9.5144,58.89,75,100,3.02,DK,2023-08-27 08:55:52
474,midvagur,62.0511,-7.1939,52.63,100,100,4.61,FO,2023-08-27 08:55:52
475,tweed heads,-28.1817,153.547,59.7,85,16,5.75,AU,2023-08-27 08:54:14
476,ghat,24.9647,10.1728,106.97,9,5,4.92,LY,2023-08-27 08:55:52
477,samana,19.2056,-69.3369,88.02,79,20,4.61,DO,2023-08-27 08:55:53
478,coahuayana de hidalgo,18.7,-103.6583,86.02,66,97,1.54,MX,2023-08-27 08:55:53
479,albertina,-22.2008,-46.6158,57.06,92,97,2.44,BR,2023-08-27 08:55:53
480,erenhot,43.6475,111.9767,66.36,49,56,12.71,CN,2023-08-27 08:46:00
481,badger,64.8,-147.5333,58.01,87,100,4.61,US,2023-08-27 08:55:54
482,skelleftea,64.7507,20.9528,64.99,76,0,11.5,SE,2023-08-27 08:55:54
483,san carlos del zulia,9.0,-71.9135,92.62,53,68,1.23,VE,2023-08-27 08:55:54
484,pont rouge,48.8833,-72.0825,62.71,49,0,4.32,CA,2023-08-27 08:55:54
485,guelendeng,10.9176,15.5501,84.6,62,99,5.5,TD,2023-08-27 08:55:54
486,margate,51.3813,1.3862,64.74,63,61,4.0,GB,2023-08-27 08:54:38
487,mahibadhoo,3.7833,72.9667,83.19,73,74,8.16,MV,2023-08-27 08:55:55
488,gisborne,-38.6533,178.0042,48.09,85,100,9.06,NZ,2023-08-27 08:55:55
489,glace bay,46.1969,-59.957,66.49,97,100,12.66,CA,2023-08-27 08:51:34
490,contamana,-7.3333,-75.0167,97.57,33,0,4.32,PE,2023-08-27 08:55:55
491,teluk intan,4.0259,101.0213,82.02,86,98,0.89,MY,2023-08-27 08:55:56
492,canyon,34.9803,-101.9188,73.78,73,91,4.0,US,2023-08-27 08:55:56
493,tagab,34.855,69.6492,72.9,38,5,8.66,AF,2023-08-27 08:55:56
494,toliara,-23.35,43.6667,70.75,79,7,22.64,MG,2023-08-27 08:55:56
495,arvayheer,46.2639,102.775,55.44,60,5,0.43,MN,2023-08-27 08:55:56
496,shangjie,26.0864,119.1847,77.92,96,100,0.09,CN,2023-08-27 08:55:57
497,port-cartier,50.0334,-66.8654,62.29,61,95,7.92,CA,2023-08-27 08:43:20
498,kourou,5.1552,-52.6478,91.45,57,10,9.64,GF,2023-08-27 08:55:57
499,baukau,51.5526,7.2042,63.43,84,78,4.0,DE,2023-08-27 08:55:57
500,kaintragarh,20.7167,84.5333,80.29,81,52,2.51,IN,2023-08-27 08:55:58
501,newman,37.3138,-121.0208,68.7,33,0,5.64,US,2023-08-27 08:46:44
502,essaouira,31.5125,-9.77,87.3,42,0,21.85,MA,2023-08-27 08:55:58
503,saint-affrique,43.9558,2.8892,66.79,39,100,13.38,FR,2023-08-27 08:55:58
504,ushtobe,45.2514,77.9838,73.63,43,100,16.02,KZ,2023-08-27 08:55:58
505,berezovyy,51.6667,135.7,48.07,90,63,3.74,RU,2023-08-27 08:55:59
506,east london,-33.0153,27.9116,63.54,67,0,8.05,ZA,2023-08-27 08:46:13
507,broken hill,-31.95,141.4333,54.41,64,2,9.13,AU,2023-08-27 08:55:59
508,fuerte olimpo,-21.0415,-57.8738,68.63,32,100,6.6,PY,2023-08-27 08:55:59
509,loiza,18.4313,-65.8802,91.49,64,75,9.22,PR,2023-08-27 08:56:00
510,ouadda,8.0777,22.4007,77.05,91,87,2.91,CF,2023-08-27 08:56:00
511,urganch,41.55,60.6333,66.15,48,0,6.91,UZ,2023-08-27 08:51:25
512,dakhla,23.6848,-15.958,80.62,65,4,32.21,EH,2023-08-27 08:56:00
513,chulym,55.0997,80.9572,58.68,83,93,7.47,RU,2023-08-27 08:56:01
514,sianow,54.2265,16.2913,63.97,76,100,7.9,PL,2023-08-27 08:56:01
515,tralee,52.2704,-9.7026,62.85,72,75,11.5,IE,2023-08-27 08:56:01
516,nortelandia,-14.4547,-56.8028,96.1,28,2,4.29,BR,2023-08-27 08:56:02
517,rudbar,30.15,62.6,94.51,18,0,11.56,AF,2023-08-27 08:56:02
518,san luis jilotepeque,14.65,-89.7333,81.3,70,95,2.59,GT,2023-08-27 08:56:02
519,glenfield park,-35.1372,147.334,55.35,88,100,4.68,AU,2023-08-27 08:56:03
520,morioka,39.7036,141.1525,71.73,95,96,2.75,JP,2023-08-27 08:56:03
521,el haouaria,37.05,11.0144,93.22,49,56,20.85,TN,2023-08-27 08:56:03
522,nuku'alofa,-21.1333,-175.2,68.68,58,74,15.19,TO,2023-08-27 08:50:43
523,shamil'kala,42.6858,46.8639,65.7,84,24,2.57,RU,2023-08-27 08:56:04
524,jayapura,-2.5333,140.7,78.19,91,53,4.59,ID,2023-08-27 08:51:56
525,quelimane,-17.8786,36.8883,78.75,78,75,16.11,MZ,2023-08-27 08:56:04
526,polyarnyy,69.1989,33.4478,50.29,80,100,7.94,RU,2023-08-27 08:56:04
527,kostrzyn,52.3985,17.2281,68.2,81,100,1.99,PL,2023-08-27 08:56:04
528,san jose del cabo,23.0589,-109.6977,89.31,70,18,1.99,MX,2023-08-27 08:56:02
529,sakaiminato,35.55,133.2333,78.78,100,20,3.44,JP,2023-08-27 08:56:05
530,saint croix,17.7397,-64.7388,89.96,71,20,11.5,VI,2023-08-27 08:56:05
531,zouerate,22.7187,-12.4521,109.81,10,14,17.52,MR,2023-08-27 08:56:05
532,key largo,25.0865,-80.4473,86.29,69,3,1.36,US,2023-08-27 08:53:25
533,taulaga,-11.0553,-171.0883,81.39,78,82,13.51,AS,2023-08-27 08:56:06
534,moree,-29.4667,149.85,57.27,53,97,7.63,AU,2023-08-27 08:56:06
535,flying fish cove,-10.4217,105.6791,74.88,83,75,12.66,CX,2023-08-27 08:56:06
536,reggane,26.7158,0.1714,110.93,13,15,4.34,DZ,2023-08-27 08:56:07
537,patacamaya,-17.2333,-67.9167,58.01,15,9,5.08,BO,2023-08-27 08:56:07
538,quimili,-27.6333,-62.4167,68.54,21,4,9.95,AR,2023-08-27 08:56:07
539,moyynkum,44.2914,72.9469,69.6,53,100,9.69,KZ,2023-08-27 08:56:07
540,high rock,26.6208,-78.2833,87.82,72,25,8.48,BS,2023-08-27 08:56:07
541,usogorsk,63.4106,48.6872,44.89,86,100,5.95,RU,2023-08-27 08:56:08
542,kafr takharim,36.1168,36.5153,83.08,58,0,17.0,SY,2023-08-27 08:56:08
543,bodo,67.28,14.405,68.23,50,0,16.11,NO,2023-08-27 08:56:08
544,plesetsk,62.708,40.2916,49.62,80,100,4.74,RU,2023-08-27 08:56:08
545,rawson,-43.3002,-65.1023,57.83,29,52,20.29,AR,2023-08-27 08:50:23
546,hashtrud,37.4779,47.0508,74.46,32,0,8.39,IR,2023-08-27 08:56:09
547,ancud,-41.8697,-73.8203,47.21,74,100,13.56,CL,2023-08-27 08:56:09
548,malango,-2.9627,119.9001,66.43,97,93,1.48,ID,2023-08-27 08:51:12
549,mitu,1.1983,-70.1733,95.29,42,0,1.57,CO,2023-08-27 08:56:10
550,mhamid,29.82,-5.72,108.81,10,0,11.7,MA,2023-08-27 08:51:12
551,vievis,54.7667,24.8,76.98,55,100,1.5,LT,2023-08-27 08:56:10
552,motozintla,15.3667,-92.2333,75.97,70,78,2.91,MX,2023-08-27 08:56:10
553,cannonvale,-20.2833,148.7,67.39,80,2,12.91,AU,2023-08-27 08:56:11
554,bonthe,7.5264,-12.505,81.23,78,87,9.8,SL,2023-08-27 08:50:08
555,blairgowrie,56.5916,-3.3405,63.37,78,99,3.0,GB,2023-08-27 08:56:11
556,lodja,-3.4833,23.4333,91.85,36,92,4.18,CD,2023-08-27 08:56:11
557,brokopondo,4.75,-55.1667,89.1,51,3,1.61,SR,2023-08-27 08:56:11
558,abra pampa,-22.7205,-65.697,57.94,8,15,2.1,AR,2023-08-27 08:56:12
559,grand-lahou,5.1367,-5.0242,78.08,84,72,10.56,CI,2023-08-27 08:56:12
560,kiffa,16.6166,-11.4045,104.25,20,95,9.13,MR,2023-08-27 08:46:40
561,ain sukhna,29.6002,32.3167,93.65,33,0,15.3,EG,2023-08-27 08:56:12
562,wad az zaki,14.4619,32.2065,93.34,37,69,7.92,SD,2023-08-27 08:56:13
563,okha,53.5739,142.9478,51.33,90,74,8.72,RU,2023-08-27 08:56:13
564,ntungamo,-0.8833,29.65,76.51,54,100,0.25,UG,2023-08-27 08:56:13
565,nemuro,43.3236,145.575,66.54,100,100,7.27,JP,2023-08-27 08:46:31
566,al khums,32.6486,14.2619,91.94,49,0,10.47,LY,2023-08-27 08:56:14
567,northam,51.0333,-4.2167,60.17,90,100,11.99,GB,2023-08-27 08:52:00
568,lewiston orchards,46.3804,-116.9754,74.93,57,0,2.84,US,2023-08-27 08:56:14
569,azul,-36.777,-59.8585,55.09,34,0,8.66,AR,2023-08-27 08:56:14
570,barmer,25.75,71.3833,85.59,52,41,24.07,IN,2023-08-27 08:56:14
571,alofi,-19.0595,-169.9187,66.09,82,100,5.75,NU,2023-08-27 08:47:05
572,holualoa,19.6228,-155.9522,68.81,87,100,10.36,US,2023-08-27 08:46:48
573,nowa deba,50.4297,21.7508,85.5,56,65,4.29,PL,2023-08-27 08:56:15
