City ID,City,Latitude,Longitude,Temperature,Humidity,Cloudiness,Wind Speed,Country,Date/Time
0,kapuskasing,49.4169,-82.4331,57.2,72,20,3.44,CA,2023-09-26 17:57:11
1,salinopolis,-0.6136,-47.3561,80.89,76,3,12.24,BR,2023-09-26 17:57:11
2,alofi,-19.0595,-169.9187,78.69,65,40,13.8,NU,2023-09-26 17:57:11
3,port-aux-francais,-49.35,70.2167,35.19,83,49,42.64,TF,2023-09-26 17:57:11
4,saipan,15.1355,145.701,83.1,89,40,6.91,MP,2023-09-26 17:57:12
5,ushuaia,-54.8,-68.3,37.06,70,40,21.85,AR,2023-09-26 17:57:12
6,tazovsky,67.4667,78.7,32.47,75,100,12.84,RU,2023-09-26 17:57:12
7,waitangi,-43.9535,-176.5597,53.69,93,0,16.26,NZ,2023-09-26 17:57:13
8,lazaro cardenas,17.9583,-102.2,82.63,79,1,4.65,MX,2023-09-26 17:57:13
9,ribeira grande,38.5167,-28.7,65.77,86,100,7.0,PT,2023-09-26 17:57:13
10,invercargill,-46.4,168.35,52.02,77,100,5.99,NZ,2023-09-26 17:53:31
11,grytviken,-54.2811,-36.5092,28.22,81,24,9.19,GS,2023-09-26 17:57:14
12,nova vicosa,-17.8919,-39.3719,76.96,81,100,16.17,BR,2023-09-26 17:57:14
13,albany,42.6001,-73.9662,51.49,89,100,1.01,US,2023-09-26 17:57:14
14,blackmans bay,-43.0167,147.3167,61.68,52,59,3.74,AU,2023-09-26 17:57:14
15,qaqortoq,60.7167,-46.0333,36.81,60,0,2.71,GL,2023-09-26 17:57:15
16,wailua homesteads,22.0669,-159.378,81.09,68,0,16.11,US,2023-09-26 17:57:15
17,nouadhibou,20.931,-17.0347,75.18,69,100,17.27,MR,2023-09-26 17:56:40
18,puerto natales,-51.7236,-72.4875,41.45,87,100,9.22,CL,2023-09-26 17:57:15
19,mersa matruh,31.3525,27.2453,75.4,73,0,8.05,EG,2023-09-26 17:57:15
20,papatowai,-46.5619,169.4708,48.7,82,100,10.27,NZ,2023-09-26 17:57:16
21,kuta,-8.7233,115.1723,80.01,83,40,3.44,ID,2023-09-26 17:57:16
22,semey,50.4111,80.2275,40.6,57,0,5.1,KZ,2023-09-26 17:57:16
23,springwood,-27.6118,153.129,80.31,44,0,3.0,AU,2023-09-26 17:57:16
24,hasaki,35.7333,140.8333,79.2,74,26,2.51,JP,2023-09-26 17:57:17
25,margaret river,-33.95,115.0667,66.04,50,0,8.12,AU,2023-09-26 17:57:17
26,sinabang,2.4803,96.3801,80.38,79,37,7.87,ID,2023-09-26 17:57:17
27,saint-francois,46.4154,3.9054,51.24,100,0,0.0,FR,2023-09-26 17:57:17
28,bethel,41.3712,-73.414,51.87,84,0,3.44,US,2023-09-26 17:53:05
29,isafjordur,66.0755,-23.124,40.42,98,100,31.12,IS,2023-09-26 17:57:18
30,hermanus,-34.4187,19.2345,53.78,80,0,11.32,ZA,2023-09-26 17:57:18
31,velikiy ustyug,60.7644,46.3106,52.39,83,100,8.01,RU,2023-09-26 17:57:18
32,afaahiti,-17.75,-149.2833,78.67,88,85,13.98,PF,2023-09-26 17:57:18
33,urumqi,43.801,87.6005,50.95,76,0,2.24,CN,2023-09-26 17:57:18
34,olyokminsk,60.3736,120.4264,51.44,81,91,1.7,RU,2023-09-26 17:57:18
35,tiksi,71.6872,128.8694,29.66,71,70,26.69,RU,2023-09-26 17:57:19
36,adamstown,-25.066,-130.1015,69.87,68,51,11.36,PN,2023-09-26 17:57:19
37,paungde,18.4833,95.5,79.34,90,100,1.16,MM,2023-09-26 17:57:19
38,chirilagua,13.2203,-88.1386,75.34,87,100,3.0,SV,2023-09-26 17:57:19
39,brandon,27.9378,-82.2859,80.53,87,0,4.61,US,2023-09-26 17:57:19
40,kirakira,-10.4544,161.9205,84.49,65,80,16.4,SB,2023-09-26 17:57:20
41,stanley,54.868,-1.6985,50.2,92,0,3.44,GB,2023-09-26 17:57:20
42,bargaal,11.2864,51.0773,79.45,81,96,8.37,SO,2023-09-26 17:57:20
43,nizhnesortymskiy,62.4397,71.7603,38.3,87,99,6.55,RU,2023-09-26 17:57:20
44,atafu village,-8.5421,-172.5159,82.56,72,25,1.59,TK,2023-09-26 17:57:21
45,balrampur,27.4333,82.1833,77.22,87,1,3.29,IN,2023-09-26 17:57:21
46,kavieng,-2.5744,150.7967,83.62,73,95,9.86,PG,2023-09-26 17:57:21
47,west island,-12.1568,96.8225,78.78,83,75,18.41,CC,2023-09-26 17:57:21
48,los frentones,-26.4077,-61.4137,59.58,77,100,12.75,AR,2023-09-26 17:57:21
49,hawaiian paradise park,19.5933,-154.9731,80.06,73,100,6.91,US,2023-09-26 17:56:04
50,georgetown,5.4112,100.3354,78.37,92,20,3.44,MY,2023-09-26 17:57:22
51,udachny,66.4167,112.4,34.45,92,100,15.68,RU,2023-09-26 17:57:22
52,jamestown,42.097,-79.2353,56.01,89,100,10.36,US,2023-09-26 17:53:33
53,namibe,-15.1961,12.1522,63.72,91,11,3.22,AO,2023-09-26 17:57:22
54,ciudad lazaro cardenas,17.9583,-102.2,82.63,79,1,4.65,MX,2023-09-26 17:57:22
55,edinburgh of the seven seas,-37.0676,-12.3116,55.31,80,11,22.41,SH,2023-09-26 17:57:23
56,olonkinbyen,70.9221,-8.7187,38.55,82,100,18.37,SJ,2023-09-26 17:57:23
57,mahriz,31.5917,54.4318,66.7,15,51,5.17,IR,2023-09-26 17:57:23
58,la ronge,55.1001,-105.2842,75.45,38,20,17.27,CA,2023-09-26 17:57:23
59,la'ie,21.6477,-157.9253,83.08,65,10,8.99,US,2023-09-26 17:57:24
60,oranjemund,-28.55,16.4333,56.79,82,0,6.67,NA,2023-09-26 17:57:24
61,rafsanjan,30.4067,55.9939,70.75,15,4,4.25,IR,2023-09-26 17:57:24
62,khandyga,62.6667,135.6,44.17,67,9,2.28,RU,2023-09-26 17:57:24
63,marsh harbour,26.5412,-77.0636,82.56,78,100,10.13,BS,2023-09-26 17:57:24
64,port mathurin,-19.6833,63.4167,72.91,68,22,19.69,MU,2023-09-26 17:57:25
65,fortuna,40.5982,-124.1573,67.28,72,20,10.36,US,2023-09-26 17:57:25
66,hotan,37.0997,79.9269,59.61,23,64,1.86,CN,2023-09-26 17:57:25
67,pacific grove,36.6177,-121.9166,66.24,78,0,10.36,US,2023-09-26 17:57:25
68,arinos,-15.9169,-46.1056,90.99,30,100,3.62,BR,2023-09-26 17:57:25
69,uturoa,-16.7333,-151.4333,77.72,79,28,16.44,PF,2023-09-26 17:57:26
70,oroqen zizhiqi,50.5667,123.7167,54.46,65,75,3.31,CN,2023-09-26 17:57:26
71,meadow lakes,61.6247,-149.6011,51.75,54,0,3.44,US,2023-09-26 17:57:26
72,imbituva,-25.23,-50.6044,73.56,59,94,2.24,BR,2023-09-26 17:57:26
73,hamilton,39.1834,-84.5333,71.01,73,100,12.66,US,2023-09-26 17:52:25
74,bilibino,68.0546,166.4372,32.97,69,100,9.01,RU,2023-09-26 17:57:26
75,sambava,-14.2667,50.1667,72.01,87,100,7.11,MG,2023-09-26 17:57:27
76,kodiak,57.79,-152.4072,51.31,43,75,13.8,US,2023-09-26 17:53:18
77,sotnikovskoye,45.0039,43.7772,59.7,64,2,10.22,RU,2023-09-26 17:57:27
78,imbituba,-28.24,-48.6703,71.85,99,94,12.37,BR,2023-09-26 17:57:27
79,lorengau,-2.0226,147.2712,77.5,87,100,6.96,PG,2023-09-26 17:57:27
80,itacare,-14.2775,-38.9967,76.66,85,6,9.28,BR,2023-09-26 17:57:28
81,bandarbeyla,9.4942,50.8122,78.93,76,48,21.0,SO,2023-09-26 17:57:28
82,tokar,18.4254,37.729,86.94,52,18,2.51,SD,2023-09-26 17:57:28
83,thompson,55.7435,-97.8558,68.16,60,20,5.75,CA,2023-09-26 17:57:22
84,haiku-pauwela,20.9219,-156.3051,82.94,51,40,23.02,US,2023-09-26 17:57:28
85,makoua,0.0069,15.6333,73.6,94,42,2.1,CG,2023-09-26 17:57:28
86,saldanha,-33.0117,17.9442,53.65,80,0,8.97,ZA,2023-09-26 17:57:29
87,sabang,5.8933,95.3214,80.98,81,100,23.8,ID,2023-09-26 17:57:29
88,iskateley,67.6803,53.1512,42.48,96,100,13.71,RU,2023-09-26 17:57:29
89,whitehorse,60.7161,-135.0538,42.91,84,100,3.44,CA,2023-09-26 17:56:24
90,punta arenas,-53.15,-70.9167,37.51,87,75,14.97,CL,2023-09-26 17:57:29
91,riachao das neves,-11.7461,-44.91,83.44,43,88,1.28,BR,2023-09-26 17:57:30
92,tura,25.5198,90.2201,75.87,90,6,2.57,IN,2023-09-26 17:57:30
93,porto novo,6.4965,2.6036,80.42,91,67,5.03,BJ,2023-09-26 17:57:30
94,muriti,-1.9833,32.9167,75.83,65,84,8.05,TZ,2023-09-26 17:57:30
95,tshikapa,-6.4167,20.8,72.81,89,73,1.1,CD,2023-09-26 17:57:30
96,inari,68.906,27.0288,53.8,76,100,14.79,FI,2023-09-26 17:57:31
97,puerto ayora,-0.7393,-90.3518,75.54,94,88,8.01,EC,2023-09-26 17:57:31
98,karaton,-6.3424,106.1045,83.08,53,0,0.51,ID,2023-09-26 17:57:31
99,kayangel,8.0823,134.7173,81.75,82,100,23.4,PW,2023-09-26 17:57:31
100,tshabong,-26.05,22.45,52.3,55,5,9.62,BW,2023-09-26 17:57:31
101,santa cruz,-17.8,-63.1667,87.26,58,0,12.66,BO,2023-09-26 17:57:31
102,pisco,-13.7,-76.2167,66.25,82,0,17.27,PE,2023-09-26 17:57:32
103,yellowknife,62.456,-114.3525,50.34,99,100,8.05,CA,2023-09-26 17:54:01
104,port lincoln,-34.7333,135.8667,59.4,59,7,11.45,AU,2023-09-26 17:56:12
105,tidjikja,18.5564,-11.4271,92.39,20,16,7.52,MR,2023-09-26 17:57:32
106,borsa,47.6553,24.6633,54.05,57,0,5.06,RO,2023-09-26 17:57:32
107,harnosand,62.6323,17.9379,42.8,86,76,7.14,SE,2023-09-26 17:57:32
108,xinzhi,36.4989,111.7047,65.3,81,100,4.74,CN,2023-09-26 17:57:33
109,bubaque,11.2833,-15.8333,82.4,78,72,6.13,GW,2023-09-26 17:57:33
110,yilan,24.757,121.753,86.85,64,0,4.97,TW,2023-09-26 17:57:33
111,barcelos,41.5388,-8.6151,64.42,80,100,2.66,PT,2023-09-26 17:54:59
112,rensselaer,42.7168,-73.4829,48.72,88,100,4.12,US,2023-09-26 17:57:33
113,thomasville,35.8826,-80.082,64.67,86,100,1.01,US,2023-09-26 17:53:41
114,hirara,24.8,125.2833,84.47,79,40,12.66,JP,2023-09-26 17:57:34
115,tara,56.8944,74.371,43.95,96,21,5.35,RU,2023-09-26 17:57:34
116,prince rupert,54.3161,-130.3201,56.23,84,100,33.38,CA,2023-09-26 17:57:34
117,tocopilla,-22.092,-70.1979,64.8,74,14,15.37,CL,2023-09-26 17:57:34
118,east ballina,-28.8667,153.5833,83.8,44,2,4.94,AU,2023-09-26 17:57:35
119,souillac,-20.5167,57.5167,71.98,78,75,11.5,MU,2023-09-26 17:57:35
120,enewetak,11.3474,162.3373,84.42,73,100,14.12,MH,2023-09-26 17:57:35
121,kone,-21.0595,164.8658,76.78,43,5,7.16,NC,2023-09-26 17:57:35
122,badger,64.8,-147.5333,42.22,65,75,6.91,US,2023-09-26 17:57:36
123,sar-e pul,35.8333,66.1667,46.78,47,30,2.91,AF,2023-09-26 17:57:36
124,nova sintra,14.8667,-24.7167,74.8,81,100,14.43,CV,2023-09-26 17:57:36
125,al qubbah,32.7616,22.2424,64.42,75,0,10.83,LY,2023-09-26 17:57:36
126,vorgashor,67.5833,63.95,34.9,97,100,9.91,RU,2023-09-26 17:57:37
127,elliot lake,46.3834,-82.6331,56.28,79,62,4.29,CA,2023-09-26 17:57:37
128,lichtenburg,-26.152,26.1597,47.14,56,100,11.72,ZA,2023-09-26 17:57:37
129,rouissat,31.9243,5.3502,75.27,31,0,11.5,DZ,2023-09-26 17:57:37
130,aykhal,66.0,111.5,34.36,86,100,20.38,RU,2023-09-26 17:57:37
131,utrik,11.2278,169.8474,81.05,83,100,18.19,MH,2023-09-26 17:57:38
132,luderitz,-26.6481,15.1594,63.48,47,0,12.91,NA,2023-09-26 17:57:38
133,novyy urgal,51.0736,132.5642,55.04,87,100,1.97,RU,2023-09-26 17:57:38
134,ilulissat,69.2167,-51.1,24.69,58,99,9.19,GL,2023-09-26 17:57:38
135,san antonio de pale,-1.4014,5.6325,75.87,83,81,11.07,GQ,2023-09-26 17:57:39
136,borshchiv,48.8033,26.0435,58.21,50,0,3.89,UA,2023-09-26 17:57:39
137,kapa'a,22.0752,-159.319,82.54,67,0,16.11,US,2023-09-26 17:57:39
138,long beach,33.767,-118.1892,75.36,58,0,11.5,US,2023-09-26 17:57:39
139,bredasdorp,-34.5322,20.0403,51.12,87,0,2.89,ZA,2023-09-26 17:57:39
140,yayladagi,35.9025,36.0627,68.52,92,13,2.84,TR,2023-09-26 17:57:39
141,lebu,-37.6167,-73.65,47.23,72,24,14.38,CL,2023-09-26 17:57:40
142,nuuk,64.1835,-51.7216,36.88,64,100,5.99,GL,2023-09-26 17:57:40
143,severo-yeniseyskiy,60.3725,93.0408,35.01,82,0,7.85,RU,2023-09-26 17:57:40
144,port hedland,-20.3167,118.5667,80.65,47,8,3.44,AU,2023-09-26 17:57:40
145,adler,43.43,39.92,66.18,68,0,8.99,RU,2023-09-26 17:57:41
146,nemuro,43.3236,145.575,63.23,87,100,5.7,JP,2023-09-26 17:57:41
147,keflavik,64.0049,-22.5624,50.43,76,75,23.02,IS,2023-09-26 17:57:41
148,sfax,34.7406,10.7603,70.66,63,0,21.9,TN,2023-09-26 17:57:41
149,vadso,70.0744,29.7487,51.96,82,75,5.75,NO,2023-09-26 17:57:41
150,vila franca do campo,37.7167,-25.4333,74.88,99,100,12.19,PT,2023-09-26 17:57:42
151,isangel,-19.55,169.2667,75.31,69,75,5.75,VU,2023-09-26 17:57:42
152,jacobina,-11.1806,-40.5183,73.65,49,46,4.9,BR,2023-09-26 17:57:42
153,swakopmund,-22.6833,14.5333,76.05,34,0,11.74,NA,2023-09-26 17:57:42
154,page,36.9147,-111.4558,82.78,18,0,4.61,US,2023-09-26 17:57:42
155,rosarito,32.3333,-117.0333,73.18,63,3,8.75,MX,2023-09-26 17:57:43
156,east london,-33.0153,27.9116,57.6,77,100,22.35,ZA,2023-09-26 17:57:43
157,kaa-khem,51.6833,94.7333,39.24,64,7,0.16,RU,2023-09-26 17:57:43
158,massawa,15.6097,39.45,89.76,64,83,4.0,ER,2023-09-26 17:57:43
159,stephenville,32.2207,-98.2023,81.82,47,0,3.44,US,2023-09-26 17:57:43
160,petropavlovka,50.6114,105.3196,43.3,89,98,2.91,RU,2023-09-26 17:57:43
161,itoman,26.1247,127.6694,86.02,74,20,11.5,JP,2023-09-26 17:57:44
162,sola,-13.8833,167.55,81.27,69,100,4.61,VU,2023-09-26 17:57:44
163,guerrero negro,27.9769,-114.0611,69.93,77,1,19.06,MX,2023-09-26 17:57:44
164,arraial do cabo,-22.9661,-42.0278,73.36,83,0,12.66,BR,2023-09-26 17:57:44
165,gebeit,21.0667,36.3167,82.8,35,79,1.5,SD,2023-09-26 17:57:44
166,tralee,52.2704,-9.7026,51.96,94,100,7.9,IE,2023-09-26 17:57:45
167,dukhan,25.4297,50.7858,85.62,63,0,7.23,QA,2023-09-26 17:57:45
168,lobujya,27.95,86.8167,30.25,79,16,1.68,NP,2023-09-26 17:57:45
169,zinjibar,13.1287,45.3807,87.06,71,80,8.68,YE,2023-09-26 17:57:45
170,banda aceh,5.5577,95.3222,80.64,80,99,15.21,ID,2023-09-26 17:57:45
171,college,64.8569,-147.8028,44.11,65,75,6.91,US,2023-09-26 17:57:46
172,mermoz boabab,14.7065,-17.4758,82.18,89,20,0.0,SN,2023-09-26 17:57:46
173,ciudad guayana,8.3533,-62.6528,76.96,88,79,3.74,VE,2023-09-26 17:57:46
174,ulanhot,46.0833,122.0833,59.74,26,0,18.5,CN,2023-09-26 17:57:46
175,gutierrez zamora,20.45,-97.0833,81.28,74,13,7.49,MX,2023-09-26 17:57:46
176,iqaluit,63.7506,-68.5145,43.7,81,100,12.66,CA,2023-09-26 17:57:47
177,akureyri,65.6835,-18.0878,44.53,81,100,6.91,IS,2023-09-26 17:57:47
178,dudinka,69.4058,86.1778,33.62,82,67,17.38,RU,2023-09-26 17:57:47
179,andkhoy,36.9529,65.1238,61.05,30,20,5.95,AF,2023-09-26 17:57:47
180,longyearbyen,78.2186,15.6401,15.64,86,20,9.22,SJ,2023-09-26 17:57:48
181,as sanad,34.4628,9.264,64.65,57,0,5.08,TN,2023-09-26 17:57:48
182,acarau,-2.8856,-40.12,79.79,74,5,16.64,BR,2023-09-26 17:57:48
183,el nido,11.1858,119.3956,82.45,79,22,9.37,PH,2023-09-26 17:57:48
184,colonia,50.9333,6.95,58.08,85,0,1.14,DE,2023-09-26 17:57:10
185,petropavlovsk-kamchatsky,53.0452,158.6483,54.19,41,0,11.18,RU,2023-09-26 17:57:48
186,lompoc,34.6391,-120.4579,68.79,90,100,19.57,US,2023-09-26 17:57:49
187,manta,-0.95,-80.7333,76.78,69,0,9.22,EC,2023-09-26 17:57:49
188,aitape,-3.1374,142.3475,78.87,85,100,3.91,PG,2023-09-26 17:57:49
189,sakaraha,-22.9,44.5333,64.06,76,5,4.16,MG,2023-09-26 17:57:49
190,kruisfontein,-34.0033,24.7314,53.89,76,66,7.11,ZA,2023-09-26 17:57:49
191,nguigmi,14.2495,13.1092,88.23,33,5,5.75,NE,2023-09-26 17:57:49
192,mgandu,-5.95,34.1333,67.24,57,90,8.59,TZ,2023-09-26 17:57:50
193,sao felix do xingu,-6.6447,-51.995,84.52,45,29,2.55,BR,2023-09-26 17:54:17
194,rio san juan,19.6439,-70.0763,81.63,83,5,9.44,DO,2023-09-26 17:57:50
195,grand falls-windsor,48.9332,-55.6649,44.51,89,4,3.02,CA,2023-09-26 17:57:50
196,bol,13.4586,14.7147,85.44,53,6,2.84,TD,2023-09-26 17:57:51
197,fort bragg,35.139,-79.006,68.07,82,100,9.22,US,2023-09-26 17:53:21
198,moundou,8.5667,16.0833,75.25,85,100,2.71,TD,2023-09-26 17:57:51
199,timimoun,29.2639,0.231,86.38,17,0,13.8,DZ,2023-09-26 17:55:23
200,talnakh,69.4865,88.3972,33.21,95,100,19.39,RU,2023-09-26 17:57:51
201,kavaratti,10.5669,72.642,82.96,74,66,10.58,IN,2023-09-26 17:57:51
202,st. john's,47.5649,-52.7093,47.57,83,100,20.0,CA,2023-09-26 17:57:52
203,vilyuysk,63.7553,121.6247,43.45,60,100,7.05,RU,2023-09-26 17:57:52
204,goundam,16.4145,-3.6708,93.47,35,11,8.9,ML,2023-09-26 17:54:21
205,port alfred,-33.5906,26.891,54.18,94,100,5.01,ZA,2023-09-26 17:57:52
206,wynyard,-41.0,145.7167,57.81,56,13,8.61,AU,2023-09-26 17:57:53
207,fale old settlement,-9.3852,-171.2468,82.94,78,27,13.27,TK,2023-09-26 17:57:53
208,port elizabeth,-33.918,25.5701,57.4,68,0,9.22,ZA,2023-09-26 17:57:53
209,junin,-34.5838,-60.9433,46.89,90,16,6.53,AR,2023-09-26 17:54:30
210,choyr,46.3611,108.3611,38.57,59,5,13.94,MN,2023-09-26 17:57:53
211,zaigrayevo,51.8336,108.2703,44.37,89,100,5.99,RU,2023-09-26 17:57:54
212,san clemente del tuyu,-36.3569,-56.7235,49.98,86,100,8.23,AR,2023-09-26 17:57:54
213,anadyr,64.75,177.4833,42.01,70,40,6.71,RU,2023-09-26 17:57:54
214,saint-philippe,-21.3585,55.7679,67.59,80,38,11.79,RE,2023-09-26 17:57:54
215,tinajo,29.0788,-13.7081,72.48,78,100,13.8,ES,2023-09-26 17:57:54
216,mil'kovo,55.6078,37.7956,42.75,76,100,3.83,RU,2023-09-26 17:57:55
217,silao,20.9333,-101.4333,72.3,36,4,18.28,MX,2023-09-26 17:57:55
218,corpus christi,27.8006,-97.3964,85.17,79,34,4.0,US,2023-09-26 17:55:37
219,carlsbad,33.1581,-117.3506,74.34,74,0,11.5,US,2023-09-26 17:57:04
220,vurpar,46.0,23.4667,57.47,53,0,4.16,RO,2023-09-26 17:57:55
221,chemolgan,43.1897,76.5292,44.26,48,0,3.33,KZ,2023-09-26 17:57:55
222,kurmuk,10.55,34.2833,70.14,87,100,4.03,SD,2023-09-26 17:57:56
223,constantia,44.1833,28.65,65.08,70,2,20.2,RO,2023-09-26 17:57:56
224,buala,-8.145,159.5921,84.36,71,100,14.54,SB,2023-09-26 17:57:56
225,tromso,69.6496,18.957,55.42,76,100,23.02,NO,2023-09-26 17:56:15
226,ancud,-41.8697,-73.8203,47.93,87,100,17.25,CL,2023-09-26 17:57:56
227,yuzhno-kurilsk,44.0306,145.8556,62.29,85,99,4.47,RU,2023-09-26 17:57:57
228,vranje,42.5514,21.9003,57.18,66,100,5.12,RS,2023-09-26 17:57:57
229,dahab,28.501,34.5134,84.94,36,0,11.5,EG,2023-09-26 17:57:57
230,barra,-11.0894,-43.1417,81.36,51,13,7.67,BR,2023-09-26 17:57:57
231,north bend,43.4065,-124.2243,65.86,59,75,17.27,US,2023-09-26 17:57:57
232,klyuchi,52.2667,79.1667,39.09,70,1,7.83,RU,2023-09-26 17:57:58
233,rongelap,11.1635,166.8941,83.71,77,97,15.08,MH,2023-09-26 17:57:58
234,chonchi,-42.6128,-73.8092,46.11,95,100,6.62,CL,2023-09-26 17:57:58
235,elko,41.0002,-115.5012,74.14,15,45,10.0,US,2023-09-26 17:57:58
236,beas de segura,38.2524,-2.8888,68.56,45,8,4.09,ES,2023-09-26 17:57:59
237,xai-xai,-25.0519,33.6442,67.08,91,100,19.24,MZ,2023-09-26 17:57:59
238,santiago de cao,-7.9589,-79.2392,66.33,88,85,10.36,PE,2023-09-26 17:57:59
239,uhrichsville,40.3931,-81.3465,63.45,83,100,6.91,US,2023-09-26 17:58:00
240,ust'-ordynskiy,52.805,104.7508,41.85,95,100,7.96,RU,2023-09-26 17:58:00
241,sao gabriel da cachoeira,-0.1303,-67.0892,79.43,78,71,2.06,BR,2023-09-26 17:58:00
242,fuglafjordur,62.244,-6.814,50.47,87,28,7.16,FO,2023-09-26 17:58:00
243,mont-laurier,46.5501,-75.4993,47.82,72,72,2.06,CA,2023-09-26 17:58:00
244,kerikeri,-35.2268,173.9474,62.91,71,3,5.01,NZ,2023-09-26 17:58:01
245,laguna,38.421,-121.4238,80.53,39,0,3.44,US,2023-09-26 17:58:01
246,mount isa,-20.7333,139.5,85.77,28,0,13.8,AU,2023-09-26 17:58:01
247,morris,40.8334,-74.5329,53.2,85,77,1.01,US,2023-09-26 17:58:01
248,basco,20.4487,121.9702,83.97,76,13,14.7,PH,2023-09-26 17:58:02
249,gwanda,-20.9333,29.0,66.02,44,0,5.14,ZW,2023-09-26 17:58:02
250,bani walid,31.7566,13.9942,67.48,73,0,10.33,LY,2023-09-26 17:58:02
251,grande prairie,55.1667,-118.8027,64.58,36,75,6.91,CA,2023-09-26 17:54:05
252,le pouliguen,47.2697,-2.4278,59.07,95,100,4.36,FR,2023-09-26 17:58:03
253,jales,-20.2689,-50.5458,87.73,36,80,7.67,BR,2023-09-26 17:58:03
254,chon buri,13.3,101.3,83.05,92,100,2.15,TH,2023-09-26 17:58:03
255,luganville,-15.5333,167.1667,77.7,67,98,11.39,VU,2023-09-26 17:58:03
256,kanniyakumari,8.0833,77.5667,78.84,85,26,14.83,IN,2023-09-26 17:58:04
257,kingston,17.997,-76.7936,84.4,80,20,10.36,JM,2023-09-26 17:57:41
258,cabo san lucas,22.8909,-109.9124,90.43,76,20,6.91,MX,2023-09-26 17:53:32
259,san patricio,28.017,-97.5169,84.65,61,10,11.88,US,2023-09-26 17:58:04
260,miles city,46.4083,-105.8406,79.77,29,0,9.22,US,2023-09-26 17:58:04
261,susuman,62.7833,148.1667,35.11,67,67,2.98,RU,2023-09-26 17:58:05
262,minas de marcona,-15.2119,-75.1103,55.27,86,84,15.7,PE,2023-09-26 17:58:05
263,nizhniy ingash,56.2,96.53,44.02,78,98,2.89,RU,2023-09-26 17:58:05
264,pandan,14.0453,124.1694,84.85,69,6,4.52,PH,2023-09-26 17:58:05
265,carnarvon,-24.8667,113.6333,79.68,34,3,7.31,AU,2023-09-26 17:58:06
266,shakawe,-18.3667,21.85,60.87,30,0,8.66,BW,2023-09-26 17:58:06
267,lere,10.387,8.5726,69.98,85,85,1.16,NG,2023-09-26 17:58:06
268,boa vista,2.8197,-60.6733,89.58,51,0,5.75,BR,2023-09-26 17:58:06
269,obo,5.3998,26.4869,68.43,98,100,3.47,CF,2023-09-26 17:58:06
270,tongchuanshi,35.0806,109.0897,59.95,92,100,1.01,CN,2023-09-26 17:58:07
271,morondava,-20.2833,44.2833,76.39,76,0,5.17,MG,2023-09-26 17:58:07
272,terrassa,41.5667,2.0167,63.82,77,0,3.44,ES,2023-09-26 17:58:07
273,roxas,11.5853,122.7511,83.14,72,13,5.86,PH,2023-09-26 17:58:07
274,slavsk,55.0425,21.677,58.19,78,42,6.89,RU,2023-09-26 17:58:08
275,aasiaat,68.7098,-52.8699,25.68,76,100,13.53,GL,2023-09-26 17:58:08
276,carutapera,-1.195,-46.02,79.81,76,4,7.14,BR,2023-09-26 17:58:08
277,karema,-6.8205,30.4389,75.83,59,11,2.64,TZ,2023-09-26 17:58:08
278,avarua,-21.2078,-159.775,77.05,69,40,17.27,CK,2023-09-26 17:58:09
279,mount pearl,47.5166,-52.7813,46.62,84,100,13.8,CA,2023-09-26 17:58:09
280,pangody,65.85,74.4859,32.43,83,81,3.38,RU,2023-09-26 17:58:09
281,shihezi,44.3,86.0333,56.8,60,8,2.1,CN,2023-09-26 17:58:09
282,changuinola,9.4333,-82.5167,81.61,82,98,1.01,PA,2023-09-26 17:58:09
283,diyarbakir,37.9158,40.2189,64.38,39,0,3.44,TR,2023-09-26 17:58:10
284,gurupa,-1.405,-51.64,83.93,63,3,7.92,BR,2023-09-26 17:58:10
285,santa ana,33.7456,-117.8678,78.69,48,0,6.91,US,2023-09-26 17:57:05
286,mata-utu,-13.2816,-176.1745,81.09,81,76,15.03,WF,2023-09-26 17:58:10
287,taman',45.2117,36.7161,69.39,59,3,25.1,RU,2023-09-26 17:58:10
288,argo,37.6333,22.7333,68.79,81,99,5.5,GR,2023-09-26 17:58:11
289,sitka,57.0531,-135.33,55.29,88,100,5.75,US,2023-09-26 17:55:25
290,nema,57.5067,50.5011,45.9,94,100,5.5,RU,2023-09-26 17:58:11
291,aqsay,51.1678,52.995,55.29,65,22,6.64,KZ,2023-09-26 17:58:12
292,kiunga,-6.1219,141.2906,74.61,97,100,2.71,PG,2023-09-26 17:58:12
293,amga,60.8953,131.9608,47.73,54,0,3.51,RU,2023-09-26 17:58:12
294,weno,7.4515,151.8468,89.55,74,40,9.22,FM,2023-09-26 17:58:12
295,westport,41.1415,-73.3579,54.45,83,0,6.91,US,2023-09-26 17:53:19
296,holualoa,19.6228,-155.9522,78.4,71,75,12.66,US,2023-09-26 17:58:12
297,tobelo,1.7284,128.0095,82.92,66,100,2.82,ID,2023-09-26 17:58:13
298,mapleton,40.1302,-111.5785,77.59,23,0,0.0,US,2023-09-26 17:58:13
299,alice springs,-23.7,133.8833,81.95,20,5,11.5,AU,2023-09-26 17:58:13
300,myitkyina,25.3833,97.4,77.88,87,11,1.48,MM,2023-09-26 17:58:13
301,trincomalee,8.5711,81.2335,80.82,78,100,18.66,LK,2023-09-26 17:58:13
302,san lorenzo,-25.3333,-57.5333,68.59,73,100,24.0,PY,2023-09-26 17:58:14
303,rusape,-18.5278,32.1284,63.73,63,25,1.92,ZW,2023-09-26 17:58:14
304,jayapura,-2.5333,140.7,79.99,88,100,6.11,ID,2023-09-26 17:58:14
305,huayacocotla,20.55,-98.4833,57.94,78,21,1.52,MX,2023-09-26 17:58:14
306,katsuren-haebaru,26.3369,127.8719,86.38,74,40,9.22,JP,2023-09-26 17:58:15
307,dul'durga,50.6761,113.5931,47.1,81,100,10.94,RU,2023-09-26 17:58:15
308,campbellton,48.0075,-66.6727,55.85,83,0,3.27,CA,2023-09-26 17:58:15
309,lata,40.1629,-8.3327,59.92,81,64,2.19,PT,2023-09-26 17:58:15
310,la passe,45.5549,-0.8967,59.23,89,100,6.31,FR,2023-09-26 17:58:15
311,praia da vitoria,38.7333,-27.0667,68.25,83,40,11.92,PT,2023-09-26 17:58:16
312,geraldton,-28.7667,114.6,82.81,34,0,21.85,AU,2023-09-26 17:58:16
313,chopda,21.25,75.3,77.95,85,97,4.25,IN,2023-09-26 17:58:16
314,prokudskoye,55.0089,82.4574,32.86,93,0,6.71,RU,2023-09-26 17:58:16
315,cabedelo,-6.9811,-34.8339,77.67,73,94,9.69,BR,2023-09-26 17:55:28
316,moreira sales,-24.0622,-53.0069,87.82,31,100,5.06,BR,2023-09-26 17:58:17
317,eyl,7.9803,49.8164,78.75,77,83,12.91,SO,2023-09-26 17:58:17
318,klaksvik,62.2266,-6.589,50.92,87,41,9.84,FO,2023-09-26 17:58:17
319,koungheul,13.9833,-14.8,80.24,87,100,6.62,SN,2023-09-26 17:58:17
320,new norfolk,-42.7826,147.0587,62.76,43,24,7.58,AU,2023-09-26 17:58:17
321,saudarkrokur,65.7461,-19.6394,42.75,89,100,6.64,IS,2023-09-26 17:58:18
322,shchyolkino,45.4291,35.8223,69.87,64,0,23.02,UA,2023-09-26 17:58:18
323,mandalgovi,45.7625,106.2708,38.17,37,0,11.63,MN,2023-09-26 17:58:18
324,brezina,33.0989,1.2608,73.42,25,0,8.52,DZ,2023-09-26 17:58:18
325,touros,-5.1989,-35.4608,79.68,64,100,13.56,BR,2023-09-26 17:53:19
326,cidreira,-30.1811,-50.2056,64.02,97,100,15.99,BR,2023-09-26 17:58:19
327,puerto carreno,6.189,-67.4859,83.39,75,100,5.21,CO,2023-09-26 17:58:19
328,ust-nera,64.5667,143.2,42.69,77,65,8.16,RU,2023-09-26 17:58:19
329,ighiu,46.15,23.5167,58.78,49,0,4.5,RO,2023-09-26 17:58:19
330,port-vila,-17.7338,168.3219,74.8,60,75,12.66,VU,2023-09-26 17:58:20
331,champerico,14.3,-91.9167,75.74,72,34,1.48,GT,2023-09-26 17:58:20
332,island harbour,50.724,-1.2758,57.49,95,100,1.01,GB,2023-09-26 17:58:20
333,la sarre,48.8002,-79.1996,50.76,70,0,5.03,CA,2023-09-26 17:58:20
334,emerald,-23.5333,148.1667,78.35,39,0,5.95,AU,2023-09-26 17:55:26
335,chicoana,-25.1009,-65.5331,57.25,85,100,2.71,AR,2023-09-26 17:58:20
336,gargalianoi,37.0667,21.6333,61.41,69,96,1.66,GR,2023-09-26 17:58:21
337,zarnesti,45.3,26.8667,62.17,37,0,11.07,RO,2023-09-26 17:58:21
338,happy valley-goose bay,53.3168,-60.3315,44.91,87,75,4.61,CA,2023-09-26 17:58:21
339,puerto leguizamo,-0.1934,-74.7819,81.91,65,81,3.04,CO,2023-09-26 17:58:22
340,mataquescuintla,14.5292,-90.1842,64.81,97,91,2.48,GT,2023-09-26 17:58:22
341,guanambi,-14.2233,-42.7814,83.79,32,5,8.72,BR,2023-09-26 17:58:22
342,mul,20.0667,79.6667,75.29,95,95,2.98,IN,2023-09-26 17:58:22
343,port douglas,-16.4833,145.4667,75.83,59,11,16.31,AU,2023-09-26 17:58:23
344,ruidoso,33.3317,-105.673,66.34,48,0,6.91,US,2023-09-26 17:58:00
345,hithadhoo,-0.6,73.0833,82.17,71,2,13.44,MV,2023-09-26 17:58:23
346,sisimiut,66.9395,-53.6735,34.72,73,100,10.49,GL,2023-09-26 17:58:23
347,coquimbo,-29.9533,-71.3436,56.93,76,0,8.05,CL,2023-09-26 17:58:24
348,murwillumbah,-28.3167,153.4,82.33,28,0,13.8,AU,2023-09-26 17:58:24
349,freeport,40.6576,-73.5832,57.81,82,20,8.05,US,2023-09-26 17:54:27
350,san andres,12.5847,-81.7006,84.22,84,20,6.91,CO,2023-09-26 17:58:24
351,detroit lakes,46.8172,-95.8453,62.76,74,0,4.61,US,2023-09-26 17:58:25
352,brookings,44.3114,-96.7984,64.02,82,100,6.91,US,2023-09-26 17:56:09
353,bonnyville,54.2668,-110.735,67.8,33,100,7.16,CA,2023-09-26 17:58:25
354,orkney,-26.9802,26.6727,42.89,74,61,6.78,ZA,2023-09-26 17:58:25
355,tulun,54.5611,100.5792,41.22,94,100,5.26,RU,2023-09-26 17:58:25
356,nili,33.7218,66.1302,49.91,23,0,3.02,AF,2023-09-26 17:58:26
357,naze,28.3667,129.4833,83.32,77,13,10.18,JP,2023-09-26 17:58:26
358,santa maria do para,-1.3503,-47.5756,75.67,85,11,5.5,BR,2023-09-26 17:58:26
359,chu,43.5983,73.7614,55.13,53,7,4.52,KZ,2023-09-26 17:58:26
360,camacupa,-12.0167,17.4833,64.63,77,7,1.43,AO,2023-09-26 17:58:26
361,koscierzyna,54.1223,17.9812,58.84,87,88,5.32,PL,2023-09-26 17:58:27
362,campos gerais,-21.235,-45.7586,84.72,34,100,3.24,BR,2023-09-26 17:58:27
363,yung shue wan,22.2333,114.1167,85.98,75,73,3.0,HK,2023-09-26 17:58:27
364,newman,37.3138,-121.0208,79.54,44,0,8.99,US,2023-09-26 17:58:27
365,genhe,50.7833,121.5167,46.04,69,36,3.56,CN,2023-09-26 17:58:27
366,vilyuchinsk,52.9306,158.4028,55.26,57,100,7.07,RU,2023-09-26 17:58:28
367,kristiansund,63.1115,7.732,54.25,76,100,6.91,NO,2023-09-26 17:58:28
368,ta`u,-14.2336,-169.5144,79.0,71,91,18.16,AS,2023-09-26 17:58:28
369,trstenik,43.6169,21.0025,52.21,69,95,4.09,RS,2023-09-26 17:58:28
370,g'uzor,38.6214,66.2522,53.64,27,3,4.12,UZ,2023-09-26 17:58:29
371,egilsstadir,65.2653,-14.3948,44.51,93,100,10.36,IS,2023-09-26 17:58:29
372,kachug,53.9606,105.8817,48.6,82,6,2.82,RU,2023-09-26 17:58:29
373,gobabis,-22.45,18.9667,47.84,54,0,10.87,NA,2023-09-26 17:58:29
374,es castell,39.8795,4.2854,63.28,82,0,5.75,ES,2023-09-26 17:58:29
375,huarmey,-10.0681,-78.1522,66.0,86,78,9.8,PE,2023-09-26 17:58:30
376,amarante do maranhao,-5.5667,-46.7422,78.62,68,0,4.76,BR,2023-09-26 17:58:30
377,dalhart,36.0595,-102.5133,83.07,32,0,10.36,US,2023-09-26 17:58:30
378,bac lieu,9.285,105.7244,81.34,83,85,12.93,VN,2023-09-26 17:58:30
379,sretensk,52.2453,117.7093,47.71,91,100,9.08,RU,2023-09-26 17:58:30
380,callao,-12.0667,-77.15,66.49,77,100,14.97,PE,2023-09-26 17:58:31
381,mamit,23.9333,92.4833,70.68,97,94,1.32,IN,2023-09-26 17:58:31
382,omagh,54.6,-7.3,46.35,98,100,4.54,GB,2023-09-26 17:58:31
383,tyuratam,45.6507,63.3156,62.4,43,0,9.31,KZ,2023-09-26 17:58:31
384,pathein,16.7833,94.7333,80.96,86,100,3.51,MM,2023-09-26 17:58:31
385,bumba,2.1833,22.4667,71.47,95,100,0.83,CD,2023-09-26 17:58:32
386,camalu,30.85,-116.0667,80.65,71,3,9.44,MX,2023-09-26 17:58:32
387,sao joao da barra,-21.6403,-41.0511,77.09,91,46,17.11,BR,2023-09-26 17:58:32
388,galle,6.0367,80.217,78.37,88,100,9.06,LK,2023-09-26 17:58:32
389,tamanrasset,22.785,5.5228,78.71,14,0,11.5,DZ,2023-09-26 17:58:32
390,freetown,8.484,-13.2299,78.12,89,5,4.47,SL,2023-09-26 17:57:20
391,khovd,48.0056,91.6419,31.23,98,100,2.8,MN,2023-09-26 17:58:33
392,kudahuvadhoo,2.6708,72.8944,82.13,77,35,12.26,MV,2023-09-26 17:58:33
393,bati,11.1833,40.0167,65.12,72,89,9.4,ET,2023-09-26 17:58:33
394,neryungri,56.6709,124.6491,43.84,78,100,7.36,RU,2023-09-26 17:58:34
395,dalandzadgad,43.5708,104.425,49.1,34,0,4.85,MN,2023-09-26 17:58:34
396,meulaboh,4.1363,96.1285,78.75,84,87,3.94,ID,2023-09-26 17:58:34
397,chichawatni,30.5333,72.7,78.03,55,0,4.97,PK,2023-09-26 17:58:34
398,nerekhta,57.4588,40.5747,39.09,92,99,6.24,RU,2023-09-26 17:58:34
399,crane,31.3974,-102.3501,85.01,31,16,9.33,US,2023-09-26 17:58:34
400,merowe,18.4833,31.8167,93.25,25,18,6.69,SD,2023-09-26 17:58:35
401,gadzhiyevo,69.2551,33.3362,49.46,89,100,20.49,RU,2023-09-26 17:58:35
402,bodo,67.28,14.405,53.35,81,61,8.05,NO,2023-09-26 17:58:35
403,mar del plata,-38.0023,-57.5575,49.6,90,0,5.75,AR,2023-09-26 17:58:35
404,statesboro,32.4488,-81.7832,66.88,95,40,0.0,US,2023-09-26 17:58:35
405,brantford,43.1334,-80.2664,61.38,73,86,9.4,CA,2023-09-26 17:57:51
406,labrador city,52.9463,-66.9114,51.71,62,0,6.91,CA,2023-09-26 17:58:36
407,scappoose,45.7543,-122.8776,62.98,75,100,8.05,US,2023-09-26 17:58:36
408,horqueta,-23.3428,-57.0597,87.39,40,64,11.83,PY,2023-09-26 17:58:36
409,harper,4.375,-7.7169,76.87,91,37,6.53,LR,2023-09-26 17:58:37
410,tolanaro,-25.0319,46.9987,71.67,78,20,9.22,MG,2023-09-26 17:58:37
411,mejit,10.2753,170.8646,81.05,83,100,11.36,MH,2023-09-26 17:58:37
412,rosetta,31.4044,30.4164,75.47,76,5,5.99,EG,2023-09-26 17:54:19
413,lewiston orchards,46.3804,-116.9754,62.64,67,0,3.44,US,2023-09-26 17:58:37
414,cartagena,10.3997,-75.5144,85.62,70,40,4.61,CO,2023-09-26 17:55:18
415,irymple,-34.25,142.1667,63.09,58,0,1.01,AU,2023-09-26 17:58:38
416,puerto san jose,13.9256,-90.8244,82.65,75,22,2.15,GT,2023-09-26 17:58:38
417,aleysk,52.4926,82.7822,36.34,78,100,5.88,RU,2023-09-26 17:58:38
418,puerto quijarro,-17.7833,-57.7667,87.85,30,12,1.9,BO,2023-09-26 17:58:38
419,paita,-5.0892,-81.1144,68.2,83,2,13.89,PE,2023-09-26 17:58:38
420,saryaghash,41.45,69.1667,60.73,30,70,2.55,KZ,2023-09-26 17:58:38
421,ad dabbah,18.05,30.95,91.65,27,44,5.28,SD,2023-09-26 17:58:39
422,santona,43.4439,-3.4576,62.64,85,99,8.03,ES,2023-09-26 17:58:39
423,ketchikan,55.3422,-131.6461,55.87,94,100,16.11,US,2023-09-26 17:58:39
424,tashtagol,52.7657,87.8894,32.7,90,17,2.01,RU,2023-09-26 17:58:39
425,sinjar,36.3209,41.8754,80.19,21,7,2.77,IQ,2023-09-26 17:58:39
426,chelak,39.9203,66.8611,56.16,34,0,2.62,UZ,2023-09-26 17:58:40
427,hovd,48.0056,91.6419,31.23,98,100,2.8,MN,2023-09-26 17:58:40
428,varzea da palma,-17.5981,-44.7308,87.67,32,100,2.48,BR,2023-09-26 17:58:40
429,sinjai,-5.1241,120.253,85.03,53,13,8.21,ID,2023-09-26 17:58:40
430,dongargarh,21.2,80.7333,74.14,90,40,1.79,IN,2023-09-26 17:58:40
431,bardai,11.65,7.2333,74.41,78,100,9.48,NG,2023-09-26 17:58:40
432,baganga,7.5739,126.56,85.17,68,96,3.22,PH,2023-09-26 17:58:41
433,villa de reyes,21.8,-100.9333,70.95,47,92,19.75,MX,2023-09-26 17:58:41
434,brak,27.5496,14.2714,71.89,32,0,4.29,LY,2023-09-26 17:58:41
435,jinchang,38.4953,102.1739,57.52,53,100,7.52,CN,2023-09-26 17:58:41
436,aldinga beach,-35.2793,138.4604,59.29,65,99,10.4,AU,2023-09-26 17:55:25
437,bridgewater,44.3835,-64.5155,50.67,91,0,4.61,CA,2023-09-26 17:54:02
438,remire-montjoly,4.9167,-52.2667,80.64,89,0,3.44,GF,2023-09-26 17:58:42
439,mahina,-17.5065,-149.489,80.37,74,75,16.11,PF,2023-09-26 17:57:55
440,morant bay,17.8815,-76.4093,87.42,84,100,7.43,JM,2023-09-26 17:58:42
441,al hudaydah,14.7978,42.9545,89.58,60,98,5.1,YE,2023-09-26 17:58:42
442,valparaiso,-33.0393,-71.6273,56.84,67,0,4.61,CL,2023-09-26 17:58:42
443,mana,5.6592,-53.7767,80.8,85,98,8.68,GF,2023-09-26 17:58:43
444,inirida,3.8653,-67.9239,80.15,80,58,2.73,CO,2023-09-26 17:58:43
445,shahrud,36.4182,54.9763,56.88,64,84,7.74,IR,2023-09-26 17:58:43
446,aginskoye,51.1,114.53,47.26,81,100,14.7,RU,2023-09-26 17:58:44
447,huruta,8.15,39.35,59.25,85,100,3.53,ET,2023-09-26 17:58:44
448,dalnegorsk,44.5604,135.5701,69.42,57,0,3.74,RU,2023-09-26 17:58:44
449,corralillo,22.9819,-80.5856,79.99,84,97,6.96,CU,2023-09-26 17:58:44
450,seguela,7.9611,-6.6731,72.36,96,7,2.93,CI,2023-09-26 17:58:44
451,dinguiraye,11.3,-10.7167,71.98,95,87,2.59,GN,2023-09-26 17:58:45
452,les avirons,-21.2418,55.3394,63.82,60,0,6.91,RE,2023-09-26 17:58:45
453,santiago suchilquitongo,17.25,-96.8833,65.16,75,49,6.58,MX,2023-09-26 17:58:45
454,saint-joseph,-21.3667,55.6167,66.18,76,18,11.81,RE,2023-09-26 17:58:45
455,general pico,-35.6566,-63.7568,50.16,25,0,9.33,AR,2023-09-26 17:58:46
456,aral,40.5156,81.2636,62.4,31,0,7.92,CN,2023-09-26 17:58:46
457,qarqaraly,49.4058,75.4742,52.52,68,100,0.43,KZ,2023-09-26 17:58:46
458,tarauaca,-8.1614,-70.7656,84.31,56,71,2.77,BR,2023-09-26 17:58:46
459,camana,-16.6228,-72.7111,64.81,85,99,10.04,PE,2023-09-26 17:58:47
460,ambodifotatra,-16.9833,49.85,74.93,77,67,17.63,MG,2023-09-26 17:58:47
461,cam ranh,11.9214,109.1591,84.16,70,20,2.3,VN,2023-09-26 17:58:47
462,lagoa da prata,-20.0225,-45.5436,82.09,37,91,0.87,BR,2023-09-26 17:58:47
463,rio gallegos,-51.6226,-69.2181,44.65,61,20,3.44,AR,2023-09-26 17:58:47
464,tsetserleg,47.475,101.4542,34.09,32,100,1.01,MN,2023-09-26 17:58:48
465,natal,-5.795,-35.2094,79.02,78,40,9.22,BR,2023-09-26 17:55:17
466,christchurch,-43.5333,172.6333,46.33,85,75,21.85,NZ,2023-09-26 17:55:15
467,kendari,-3.945,122.4989,83.44,57,24,3.69,ID,2023-09-26 17:58:48
468,san juan,-31.5375,-68.5364,58.84,29,0,5.14,AR,2023-09-26 17:55:46
469,tazacorte,28.629,-17.9293,76.17,78,75,13.8,ES,2023-09-26 17:58:48
470,mahenge,-8.6833,36.7167,60.42,86,46,2.08,TZ,2023-09-26 17:58:49
471,taihecun,45.8,130.85,70.79,53,37,10.78,CN,2023-09-26 17:58:49
472,rabaul,-4.1967,152.1721,85.96,66,96,10.51,PG,2023-09-26 17:58:49
473,achinsk,56.2694,90.4993,43.7,74,100,3.47,RU,2023-09-26 17:58:49
474,bikenibeu village,1.3673,173.1241,85.96,79,75,5.75,KI,2023-09-26 17:58:49
475,punta cardon,11.6581,-70.215,83.98,78,96,22.5,VE,2023-09-26 17:58:50
476,antigonish,45.6169,-61.9986,51.48,94,0,1.01,CA,2023-09-26 17:58:50
477,bel ombre,-4.6167,55.4167,78.64,83,40,14.97,SC,2023-09-26 17:58:50
478,richards bay,-28.783,32.0377,66.58,55,100,15.1,ZA,2023-09-26 17:58:50
479,formosa do rio preto,-11.0483,-45.1931,82.56,45,60,3.74,BR,2023-09-26 17:58:50
480,luau,-10.7073,22.2247,70.54,74,94,6.15,AO,2023-09-26 17:58:51
481,belomorsk,64.5232,34.7668,51.13,95,6,8.59,RU,2023-09-26 17:58:51
482,sandnessjoen,66.0217,12.6316,43.32,75,55,13.78,NO,2023-09-26 17:58:51
483,bengkulu,-3.8004,102.2655,77.09,81,57,2.82,ID,2023-09-26 17:58:51
484,yunguyo,-16.25,-69.0833,49.66,73,21,4.47,PE,2023-09-26 17:58:51
485,ibipeba,-11.6408,-42.0111,77.56,47,86,5.86,BR,2023-09-26 17:58:52
486,hola,51.5377,23.1902,57.38,61,0,6.76,PL,2023-09-26 17:58:52
487,oltinko'l,40.8011,72.1634,61.9,29,0,4.03,UZ,2023-09-26 17:58:52
488,alik ghund,30.4896,67.5226,48.69,21,0,2.04,PK,2023-09-26 17:58:52
489,andergrove,-21.0833,149.1833,80.65,53,5,11.88,AU,2023-09-26 17:58:52
490,kosti,13.1629,32.6635,79.48,70,99,11.56,SD,2023-09-26 17:58:53
491,vrangel',42.7297,133.0839,66.25,76,76,3.06,RU,2023-09-26 17:56:50
492,floro,61.5996,5.0328,55.38,82,100,8.05,NO,2023-09-26 17:58:53
493,blandon,40.4412,-75.8869,56.57,78,97,7.0,US,2023-09-26 17:58:53
494,bangkalan,-7.0455,112.7351,82.35,55,1,6.02,ID,2023-09-26 17:58:53
495,colditz,51.1333,12.8167,54.79,88,6,3.6,DE,2023-09-26 17:58:54
496,askale,39.9208,40.695,52.95,69,72,5.59,TR,2023-09-26 17:58:54
497,trevelin,-43.0858,-71.4639,42.28,93,98,5.79,AR,2023-09-26 17:58:54
498,vilhena,-12.7406,-60.1458,80.37,46,14,3.69,BR,2023-09-26 17:58:54
499,safonovo,55.15,33.2167,47.7,84,87,1.7,RU,2023-09-26 17:58:54
500,peterhead,57.5058,-1.7981,54.0,83,100,10.22,GB,2023-09-26 17:58:55
501,sabha,27.0377,14.4283,73.72,29,0,9.44,LY,2023-09-26 17:58:55
502,xinmin,41.9908,122.8253,68.25,72,100,7.43,CN,2023-09-26 17:58:55
503,khanapur,15.6333,74.5167,70.11,98,100,4.41,IN,2023-09-26 17:58:55
504,tianchang,37.9981,114.0156,71.06,63,100,5.19,CN,2023-09-26 17:58:55
505,baker city,44.7749,-117.8344,61.43,55,0,5.75,US,2023-09-26 17:57:07
506,barmer,25.75,71.3833,83.8,58,0,8.01,IN,2023-09-26 17:58:56
507,vorkuta,67.5,64.0,36.05,97,100,9.64,RU,2023-09-26 17:58:56
508,popondetta,-8.7537,148.2534,85.35,65,100,4.29,PG,2023-09-26 17:58:56
509,caburan,5.9181,125.6411,83.91,67,100,7.09,PH,2023-09-26 17:58:56
510,kanggye,40.9695,126.5852,71.31,66,100,2.37,KP,2023-09-26 17:58:56
511,celica,-4.1167,-79.95,69.01,60,74,4.0,EC,2023-09-26 17:58:57
512,i-n-salah,27.1935,2.4607,90.95,14,0,6.24,DZ,2023-09-26 17:58:57
513,tres arroyos,-38.3739,-60.2798,44.83,93,1,3.31,AR,2023-09-26 17:58:57
514,usinsk,65.9939,57.5281,49.05,97,100,13.89,RU,2023-09-26 17:58:57
515,nago,26.5881,127.9761,86.43,71,3,8.37,JP,2023-09-26 17:58:57
516,polyarnyy,69.1989,33.4478,49.98,88,100,19.42,RU,2023-09-26 17:58:58
517,acapulco de juarez,16.8634,-99.8901,82.89,81,5,3.8,MX,2023-09-26 17:58:58
518,turgen,43.4006,77.5933,42.93,47,0,4.56,KZ,2023-09-26 17:58:58
519,montmorillon,46.4167,0.6667,58.89,86,94,3.22,FR,2023-09-26 17:58:58
520,newberg,45.3001,-122.9732,63.0,71,100,11.5,US,2023-09-26 17:53:19
521,flin flon,54.7682,-101.865,65.84,61,6,14.03,CA,2023-09-26 17:58:58
522,papao,-17.75,-149.55,80.28,89,52,16.4,PF,2023-09-26 17:58:59
523,sidrolandia,-20.9319,-54.9614,86.13,33,9,4.36,BR,2023-09-26 17:58:59
524,salalah,17.0151,54.0924,76.89,80,21,2.51,OM,2023-09-26 17:58:59
525,nakhon thai,17.1006,100.8374,73.85,100,100,0.63,TH,2023-09-26 17:58:59
526,dunedin,-45.8742,170.5036,48.83,78,100,3.74,NZ,2023-09-26 17:55:40
527,tucuma,-0.1833,-50.05,80.06,78,8,7.31,BR,2023-09-26 17:59:00
528,daru,-9.0763,143.2092,77.34,85,100,17.36,PG,2023-09-26 17:59:00
529,hashtrud,37.4779,47.0508,49.33,65,7,3.36,IR,2023-09-26 17:59:00
530,kulhudhuffushi,6.6221,73.07,82.27,78,100,11.43,MV,2023-09-26 17:59:00
531,kuala terengganu,5.3302,103.1408,76.95,94,20,3.44,MY,2023-09-26 17:59:00
532,corod,45.9,27.6167,61.0,38,0,8.55,RO,2023-09-26 17:59:01
533,magong,23.5654,119.5863,82.4,84,53,10.13,TW,2023-09-26 17:59:01
534,ulsteinvik,62.3432,5.8487,62.42,59,100,11.01,NO,2023-09-26 17:59:01
535,walvis bay,-22.9575,14.5053,76.15,23,0,17.27,NA,2023-09-26 17:59:01
536,paradip garh,20.3167,86.6167,81.19,85,100,3.96,IN,2023-09-26 17:59:01
537,kindu,-2.95,25.95,71.02,86,99,1.66,CD,2023-09-26 17:59:02
538,xinyuan,37.3,99.0,36.32,62,98,3.67,CN,2023-09-26 17:59:02
539,shingu,33.7333,135.9833,83.84,58,6,2.91,JP,2023-09-26 17:59:02
540,undurkhaan,47.3194,110.6556,43.45,52,8,6.44,MN,2023-09-26 17:59:02
541,vryburg,-26.9566,24.7284,45.37,67,17,10.94,ZA,2023-09-26 17:59:02
542,fort st. john,56.2499,-120.8529,60.69,48,75,8.05,CA,2023-09-26 17:59:03
543,kalmunai,7.4167,81.8167,80.76,77,100,0.78,LK,2023-09-26 17:59:03
544,el colorado,-26.3081,-59.3729,58.95,81,100,13.89,AR,2023-09-26 17:59:03
545,matoury,4.8483,-52.3317,80.56,89,0,3.44,GF,2023-09-26 17:59:03
546,el calafate,-50.3408,-72.2768,39.6,89,91,7.58,AR,2023-09-26 17:59:03
547,duba,27.3513,35.6901,85.75,53,5,2.64,SA,2023-09-26 17:59:04
548,fortaleza,-3.7227,-38.5247,77.13,94,75,13.8,BR,2023-09-26 17:58:36
549,portland,45.5234,-122.6762,63.7,71,75,9.22,US,2023-09-26 17:59:04
550,forbes,-33.3833,148.0167,72.34,18,24,10.94,AU,2023-09-26 17:59:04
551,tsiombe,-25.3,45.4833,69.8,69,20,5.37,MG,2023-09-26 17:59:04
552,san diego,32.7153,-117.1573,75.49,66,20,10.36,US,2023-09-26 17:54:55
553,minzhu,43.7286,127.3447,62.96,73,100,4.16,CN,2023-09-26 17:59:05
554,karratha,-20.7377,116.8463,90.39,21,49,9.42,AU,2023-09-26 17:59:05
555,mirriah,13.7073,9.1501,88.29,26,11,5.79,NE,2023-09-26 17:59:05
556,beloyarskiy,63.7119,66.6722,41.0,79,100,5.01,RU,2023-09-26 17:59:05
557,baise city,23.8997,106.6133,78.51,89,95,0.98,CN,2023-09-26 17:59:06
558,broome,42.2506,-75.833,52.45,88,20,6.91,US,2023-09-26 17:59:06
559,londa,15.4691,74.5191,69.62,98,100,3.69,IN,2023-09-26 17:59:06
560,port blair,11.6667,92.75,77.04,94,75,3.44,IN,2023-09-26 17:58:09
561,lihue,21.9789,-159.3672,82.29,67,0,16.11,US,2023-09-26 17:59:06
562,kattivakkam,13.2167,80.3167,80.08,84,98,6.98,IN,2023-09-26 17:59:07
563,moires,35.0532,24.8744,66.42,86,0,1.99,GR,2023-09-26 17:59:08
564,eiguliai,54.9282,23.9329,55.45,94,0,3.44,LT,2023-09-26 17:59:08
565,cumnock,55.4544,-4.2664,48.76,96,29,5.77,GB,2023-09-26 17:59:09
566,saint-denis,48.9167,2.3333,60.37,86,0,3.44,FR,2023-09-26 17:59:09
567,kenitra,34.261,-6.5802,63.36,87,17,4.92,MA,2023-09-26 17:59:09
568,zheleznogorsk-ilimskiy,56.5768,104.1217,44.92,80,15,4.56,RU,2023-09-26 17:59:09
569,namtsy,62.7161,129.6658,46.63,76,100,3.0,RU,2023-09-26 17:59:09
570,mhamid,29.82,-5.72,84.63,18,0,8.05,MA,2023-09-26 17:59:10
571,samokov,42.3333,23.55,54.43,76,94,4.18,BG,2023-09-26 17:59:10
572,karystos,38.0133,24.4161,73.47,83,48,10.09,GR,2023-09-26 17:59:10
573,paracuru,-3.41,-39.0306,79.11,74,30,13.49,BR,2023-09-26 17:59:10
574,sujiatun,41.6592,123.3392,69.98,83,75,8.95,CN,2023-09-26 17:59:10
