City ID,City,Latitude,Longitude,Temperature,Humidity,Cloudiness,Wind Speed,Country,Date/Time
0,grytviken,-54.2811,-36.5092,28.22,81,24,9.19,GS,2023-09-26 17:33:03
1,bandar lampung,-5.4254,105.258,81.45,62,1,3.85,ID,2023-09-26 17:33:03
2,pisco,-13.7,-76.2167,66.25,82,0,17.27,PE,2023-09-26 17:33:03
3,albany,42.6001,-73.9662,52.59,88,98,1.01,US,2023-09-26 17:28:56
4,lemvig,56.5486,8.3102,59.14,90,100,11.9,DK,2023-09-26 17:33:04
5,aspen,39.1911,-106.8175,71.04,15,0,8.05,US,2023-09-26 17:28:42
6,luderitz,-26.6481,15.1594,63.48,47,0,12.91,NA,2023-09-26 17:33:04
7,bonthe,7.5264,-12.505,78.26,89,23,3.11,SL,2023-09-26 17:33:04
8,papatowai,-46.5619,169.4708,48.7,82,100,10.27,NZ,2023-09-26 17:33:05
9,adamstown,-25.066,-130.1015,69.87,68,51,11.36,PN,2023-09-26 17:33:05
10,olonkinbyen,70.9221,-8.7187,38.55,82,100,18.37,SJ,2023-09-26 17:33:05
11,hithadhoo,-0.6,73.0833,82.17,71,2,13.44,MV,2023-09-26 17:33:05
12,puerto baquerizo moreno,-0.9,-89.6,74.44,85,40,12.97,EC,2023-09-26 17:32:30
13,hawaiian paradise park,19.5933,-154.9731,80.91,68,100,6.91,US,2023-09-26 17:33:06
14,port alfred,-33.5906,26.891,55.18,92,100,8.01,ZA,2023-09-26 17:33:06
15,sitka,57.0531,-135.33,55.29,88,100,5.75,US,2023-09-26 17:33:06
16,port-aux-francais,-49.35,70.2167,35.19,83,49,42.64,TF,2023-09-26 17:33:06
17,port isabel,26.0734,-97.2086,85.93,69,0,9.22,US,2023-09-26 17:33:07
18,kasongo-lunda,-6.4667,16.8167,73.11,89,96,0.85,CD,2023-09-26 17:33:07
19,vila franca do campo,37.7167,-25.4333,74.88,99,100,12.19,PT,2023-09-26 17:33:07
20,uliastay,47.7417,96.8444,37.45,67,90,6.42,MN,2023-09-26 17:33:07
21,waitangi,-43.9535,-176.5597,58.82,87,0,10.0,NZ,2023-09-26 17:32:23
22,bilibino,68.0546,166.4372,32.97,69,100,9.01,RU,2023-09-26 17:33:08
23,longyearbyen,78.2186,15.6401,17.44,79,20,6.91,SJ,2023-09-26 17:33:08
24,tommot,58.9564,126.2925,47.64,71,8,0.31,RU,2023-09-26 17:33:08
25,shangqiu,34.45,115.65,69.84,75,58,4.61,CN,2023-09-26 17:33:08
26,kalevala,65.2,31.1667,49.87,96,52,8.43,RU,2023-09-26 17:33:09
27,stanthorpe,-28.6667,151.95,71.42,48,0,9.44,AU,2023-09-26 17:33:09
28,colonia,50.9333,6.95,58.42,85,0,1.14,DE,2023-09-26 17:33:09
29,hermanus,-34.4187,19.2345,53.78,80,0,11.32,ZA,2023-09-26 17:33:09
30,yellowknife,62.456,-114.3525,50.34,99,100,8.05,CA,2023-09-26 17:33:03
31,saint-philippe,-21.3585,55.7679,65.79,80,38,11.79,RE,2023-09-26 17:33:10
32,salgado,-11.0319,-37.475,77.7,89,46,6.11,BR,2023-09-26 17:33:10
33,fale old settlement,-9.3852,-171.2468,82.94,78,27,13.27,TK,2023-09-26 17:33:10
34,san antonio de pale,-1.4014,5.6325,75.87,83,81,11.07,GQ,2023-09-26 17:33:10
35,rawson,-43.3002,-65.1023,55.17,38,100,8.88,AR,2023-09-26 17:30:40
36,as saffaniyah,27.9708,48.73,84.02,53,0,5.93,SA,2023-09-26 17:33:11
37,tavrichanka,43.3378,131.8639,67.86,84,100,8.46,RU,2023-09-26 17:33:11
38,katabu,-4.9333,122.5167,85.69,47,44,7.25,ID,2023-09-26 17:33:11
39,constantia,44.1833,28.65,65.08,70,2,20.2,RO,2023-09-26 17:33:11
40,petropavlovsk-kamchatsky,53.0452,158.6483,54.19,41,0,13.42,RU,2023-09-26 17:30:36
41,stanley,54.868,-1.6985,50.63,90,0,4.61,GB,2023-09-26 17:30:52
42,puerto ayora,-0.7393,-90.3518,75.54,94,88,8.01,EC,2023-09-26 17:33:12
43,isafjordur,66.0755,-23.124,40.42,98,100,31.12,IS,2023-09-26 17:33:12
44,nemuro,43.3236,145.575,62.92,88,87,4.94,JP,2023-09-26 17:28:18
45,asau,46.4333,26.4,49.12,45,0,5.12,RO,2023-09-26 17:33:12
46,ushuaia,-54.8,-68.3,37.06,70,40,21.85,AR,2023-09-26 17:33:12
47,saipan,15.1355,145.701,83.1,89,40,6.91,MP,2023-09-26 17:33:13
48,nuuk,64.1835,-51.7216,38.01,65,100,6.91,GL,2023-09-26 17:33:13
49,bethel,41.3712,-73.414,52.18,83,0,3.44,US,2023-09-26 17:33:13
50,georgetown,5.4112,100.3354,77.58,94,20,3.44,MY,2023-09-26 17:29:59
51,boundiali,9.5217,-6.4869,72.63,95,13,1.97,CI,2023-09-26 17:33:14
52,samashki,43.2906,45.3014,57.99,86,0,1.41,RU,2023-09-26 17:33:14
53,edinburgh of the seven seas,-37.0676,-12.3116,55.31,80,11,22.41,SH,2023-09-26 17:33:14
54,piney green,34.716,-77.3202,71.37,82,20,13.8,US,2023-09-26 17:33:14
55,haiku-pauwela,20.9219,-156.3051,82.11,53,40,23.02,US,2023-09-26 17:33:14
56,el bolson,-41.9667,-71.5167,34.88,97,90,6.29,AR,2023-09-26 17:33:15
57,peterhead,57.5058,-1.7981,55.8,83,100,10.22,GB,2023-09-26 17:32:18
58,twon-brass,4.3151,6.2418,79.21,87,39,10.78,NG,2023-09-26 17:33:15
59,hammerfest,70.6634,23.6821,50.45,100,75,23.02,NO,2023-09-26 17:33:15
60,puerto natales,-51.7236,-72.4875,41.45,87,100,9.22,CL,2023-09-26 17:33:16
61,shibetsu,43.659,145.132,66.9,88,75,2.3,JP,2023-09-26 17:33:16
62,tsiombe,-25.3,45.4833,69.8,69,20,5.37,MG,2023-09-26 17:33:16
63,ilhabela,-23.7781,-45.3581,74.37,94,100,8.39,BR,2023-09-26 17:33:16
64,bhayavadar,21.85,70.25,77.54,73,98,4.16,IN,2023-09-26 17:33:17
65,liberia,6.5,-9.5,73.0,100,71,2.35,LR,2023-09-26 17:33:17
66,ancud,-41.8697,-73.8203,47.93,87,100,17.25,CL,2023-09-26 17:33:17
67,invercargill,-46.4,168.35,53.02,73,100,8.99,NZ,2023-09-26 17:33:17
68,ilulissat,69.2167,-51.1,28.42,64,75,14.97,GL,2023-09-26 17:33:17
69,ribeira grande,38.5167,-28.7,66.78,83,100,10.0,PT,2023-09-26 17:33:18
70,trapani,37.8333,12.6667,71.91,83,40,13.8,IT,2023-09-26 17:33:18
71,ramanuj ganj,23.8,83.7,74.93,91,16,1.77,IN,2023-09-26 17:33:18
72,pandan,14.0453,124.1694,84.85,69,6,4.52,PH,2023-09-26 17:33:18
73,turbat,26.0023,63.044,79.54,19,4,5.19,PK,2023-09-26 17:33:18
74,port mathurin,-19.6833,63.4167,72.91,68,22,19.69,MU,2023-09-26 17:33:18
75,guerrero negro,27.9769,-114.0611,69.93,77,1,19.06,MX,2023-09-26 17:32:48
76,kapa'a,22.0752,-159.319,82.2,65,0,16.11,US,2023-09-26 17:33:19
77,blackmans bay,-43.0167,147.3167,59.52,52,59,3.74,AU,2023-09-26 17:33:19
78,krasnoarmeysk,51.0239,45.6969,58.84,70,92,3.49,RU,2023-09-26 17:33:19
79,punta arenas,-53.15,-70.9167,37.51,87,75,14.97,CL,2023-09-26 17:30:26
80,jamestown,42.097,-79.2353,56.01,89,100,10.36,US,2023-09-26 17:33:20
81,aripuana,-9.1667,-60.6333,88.16,40,98,2.13,BR,2023-09-26 17:33:20
82,burang,30.25,81.1667,39.06,53,0,2.46,CN,2023-09-26 17:33:20
83,harper,4.375,-7.7169,76.87,91,37,6.53,LR,2023-09-26 17:33:20
84,udachny,66.4167,112.4,34.45,100,100,15.68,RU,2023-09-26 17:33:21
85,vadso,70.0744,29.7487,50.16,87,75,5.75,NO,2023-09-26 17:33:21
86,selfoss,63.9331,-20.9971,47.05,90,100,22.35,IS,2023-09-26 17:33:21
87,port augusta,-32.5,137.7667,65.59,54,0,19.82,AU,2023-09-26 17:33:21
88,west island,-12.1568,96.8225,76.98,94,40,13.8,CC,2023-09-26 17:33:21
89,benito juarez,19.385,-99.165,73.22,27,40,13.8,MX,2023-09-26 17:33:22
90,st. john's,47.5649,-52.7093,47.57,84,100,18.01,CA,2023-09-26 17:30:47
91,maragogi,-9.0122,-35.2225,78.48,75,87,8.93,BR,2023-09-26 17:33:23
92,zhigalovo,54.8097,105.1578,48.09,86,39,2.08,RU,2023-09-26 17:33:24
93,lebu,-37.6167,-73.65,47.23,72,24,14.38,CL,2023-09-26 17:31:21
94,talnakh,69.4865,88.3972,33.21,95,100,19.39,RU,2023-09-26 17:33:24
95,happy valley-goose bay,53.3168,-60.3315,44.91,87,75,4.61,CA,2023-09-26 17:33:24
96,tiksi,71.6872,128.8694,29.66,71,70,26.69,RU,2023-09-26 17:33:25
97,chaguanas,10.5167,-61.4167,80.98,88,20,0.0,TT,2023-09-26 17:33:25
98,bredasdorp,-34.5322,20.0403,51.12,87,0,2.89,ZA,2023-09-26 17:33:25
99,kingston,17.997,-76.7936,84.4,80,20,10.36,JM,2023-09-26 17:23:25
100,taghazout,30.5426,-9.7112,66.97,89,15,4.32,MA,2023-09-26 17:33:25
101,halifax,44.6453,-63.5724,52.86,83,75,6.91,CA,2023-09-26 17:29:43
102,severo-yeniseyskiy,60.3725,93.0408,35.01,82,0,7.85,RU,2023-09-26 17:33:26
103,kralendijk,12.15,-68.2667,85.98,74,0,10.36,BQ,2023-09-26 17:33:26
104,norilsk,69.3535,88.2027,33.42,93,100,20.58,RU,2023-09-26 17:33:26
105,new norfolk,-42.7826,147.0587,60.71,43,24,7.58,AU,2023-09-26 17:33:26
106,antsiranana,-12.2787,49.2917,73.13,83,51,15.79,MG,2023-09-26 17:33:27
107,boende,-0.2167,20.8667,73.49,87,66,0.54,CD,2023-09-26 17:33:27
108,san patricio,28.017,-97.5169,86.02,61,10,11.88,US,2023-09-26 17:33:27
109,iqaluit,63.7506,-68.5145,43.7,81,100,12.66,CA,2023-09-26 17:29:27
110,weno,7.4515,151.8468,89.55,74,40,9.22,FM,2023-09-26 17:33:28
111,conde,-7.2597,-34.9075,76.46,83,20,4.61,BR,2023-09-26 17:33:28
112,pontianak,-0.0333,109.3333,77.99,88,40,4.61,ID,2023-09-26 17:33:28
113,alice springs,-23.7,133.8833,80.15,21,5,8.05,AU,2023-09-26 17:31:52
114,ust-tsilma,65.441,52.1498,51.66,88,96,10.96,RU,2023-09-26 17:33:28
115,ketchikan,55.3422,-131.6461,55.87,94,100,16.11,US,2023-09-26 17:33:28
116,suoyarvi,62.0833,32.35,51.33,97,54,6.26,RU,2023-09-26 17:33:29
117,crane,31.3974,-102.3501,85.01,31,16,9.33,US,2023-09-26 17:33:29
118,enewetak,11.3474,162.3373,84.42,73,100,14.12,MH,2023-09-26 17:33:29
119,codrington,-38.2667,141.9667,55.04,65,48,13.27,AU,2023-09-26 17:33:29
120,portland,45.5234,-122.6762,64.02,72,75,11.01,US,2023-09-26 17:24:06
121,margaret river,-33.95,115.0667,66.04,50,0,8.12,AU,2023-09-26 17:33:30
122,bereket,39.2446,55.5154,65.14,34,94,3.22,TM,2023-09-26 17:33:30
123,kodiak,57.79,-152.4072,51.31,43,75,13.8,US,2023-09-26 17:33:30
124,bhuj,23.2667,69.6667,79.48,67,9,5.01,IN,2023-09-26 17:33:30
125,college,64.8569,-147.8028,44.38,65,75,6.91,US,2023-09-26 17:32:13
126,saint joseph,39.7686,-94.8466,74.48,59,40,5.99,US,2023-09-26 17:32:52
127,ola,59.5833,151.2833,48.15,60,16,3.06,RU,2023-09-26 17:33:31
128,logan,41.7355,-111.8344,77.0,39,0,6.91,US,2023-09-26 17:33:31
129,valdez,1.2492,-78.9831,79.21,84,100,9.17,EC,2023-09-26 17:33:31
130,antofagasta,-23.65,-70.4,60.08,79,47,7.05,CL,2023-09-26 17:33:31
131,kismayo,-0.3582,42.5454,77.56,83,17,12.8,SO,2023-09-26 17:33:32
132,bhisho,-32.8472,27.4422,49.84,81,100,14.92,ZA,2023-09-26 17:33:32
133,pariaman,-0.619,100.12,73.45,82,100,4.05,ID,2023-09-26 17:33:32
134,ghat,24.9647,10.1728,77.23,25,0,0.83,LY,2023-09-26 17:33:32
135,vorgashor,67.5833,63.95,34.9,97,100,9.91,RU,2023-09-26 17:33:32
136,glace bay,46.1969,-59.957,50.99,87,40,5.75,CA,2023-09-26 17:33:33
137,oranjemund,-28.55,16.4333,56.79,82,0,6.67,NA,2023-09-26 17:33:33
138,walvis bay,-22.9575,14.5053,76.15,23,0,17.27,NA,2023-09-26 17:33:33
139,ebon,4.582,168.6964,83.97,76,100,13.06,MH,2023-09-26 17:33:33
140,hasaki,35.7333,140.8333,79.2,74,26,2.51,JP,2023-09-26 17:33:34
141,afaahiti,-17.75,-149.2833,78.67,88,85,13.98,PF,2023-09-26 17:33:34
142,grebenskaya,43.5317,46.3733,59.36,74,0,7.4,RU,2023-09-26 17:33:34
143,port lincoln,-34.7333,135.8667,59.4,59,7,11.45,AU,2023-09-26 17:33:34
144,lihue,21.9789,-159.3672,81.99,65,0,16.11,US,2023-09-26 17:33:34
145,springs,-26.25,28.4,49.41,71,3,6.24,ZA,2023-09-26 17:33:35
146,aasiaat,68.7098,-52.8699,25.68,76,100,13.53,GL,2023-09-26 17:33:35
147,inverloch,-38.6333,145.7167,57.25,73,98,6.24,AU,2023-09-26 17:33:35
148,clarinda,40.7419,-95.0383,69.08,52,0,4.61,US,2023-09-26 17:33:35
149,gadzhiyevo,69.2551,33.3362,49.46,89,100,20.49,RU,2023-09-26 17:33:16
150,avarua,-21.2078,-159.775,75.25,78,75,11.5,CK,2023-09-26 17:33:36
151,nikolayevsk-on-amure,53.1406,140.73,58.8,59,92,1.3,RU,2023-09-26 17:33:36
152,agat village,13.3886,144.6585,82.42,90,75,5.75,GU,2023-09-26 17:33:36
153,kruisfontein,-34.0033,24.7314,53.89,76,66,7.11,ZA,2023-09-26 17:33:36
154,masterton,-40.9597,175.6575,50.88,97,100,11.99,NZ,2023-09-26 17:30:42
155,kincardine,56.0667,-3.7167,49.66,96,0,4.5,GB,2023-09-26 17:33:37
156,prince rupert,54.3161,-130.3201,56.23,84,100,33.38,CA,2023-09-26 17:33:37
157,phan rang-thap cham,11.5667,108.9833,83.28,69,100,5.12,VN,2023-09-26 17:33:37
158,ahmetli,38.5196,27.9387,66.85,78,100,1.05,TR,2023-09-26 17:33:37
159,utrik,11.2278,169.8474,81.05,83,100,18.19,MH,2023-09-26 17:33:37
160,qaqortoq,60.7167,-46.0333,36.81,60,0,2.71,GL,2023-09-26 17:33:37
161,kulob,37.9145,69.783,63.36,42,100,11.18,TJ,2023-09-26 17:33:38
162,polyarnyy,69.1989,33.4478,49.98,88,100,19.42,RU,2023-09-26 17:33:19
163,rio grande,-32.035,-52.0986,54.95,93,100,19.22,BR,2023-09-26 17:33:38
164,uray,60.1247,64.7758,46.87,69,100,3.0,RU,2023-09-26 17:33:38
165,chiang rai,19.9167,99.9167,75.11,100,40,10.36,TH,2023-09-26 17:33:38
166,trail,49.0998,-117.7022,62.69,89,97,3.98,CA,2023-09-26 17:29:40
167,wailua homesteads,22.0669,-159.378,80.67,66,0,16.11,US,2023-09-26 17:33:39
168,port saint john's,-31.6229,29.5448,61.23,58,49,17.07,ZA,2023-09-26 17:33:39
169,nguigmi,14.2495,13.1092,88.23,33,5,5.75,NE,2023-09-26 17:33:39
170,thompson,55.7435,-97.8558,68.16,60,20,5.75,CA,2023-09-26 17:30:58
171,caala,-12.8525,15.5606,62.13,76,0,2.93,AO,2023-09-26 17:33:39
172,chibougamau,49.9168,-74.3659,42.42,87,0,0.0,CA,2023-09-26 17:33:40
173,bodaybo,57.8506,114.1933,50.72,72,18,1.03,RU,2023-09-26 17:33:40
174,el dorado,38.7666,-120.5177,67.98,67,6,1.01,US,2023-09-26 17:33:40
175,yoloten,37.2989,62.3597,61.77,34,4,5.32,TM,2023-09-26 17:33:40
176,dudinka,69.4058,86.1778,33.62,82,67,17.38,RU,2023-09-26 17:33:40
177,malango,-2.9627,119.9001,78.51,50,100,3.13,ID,2023-09-26 17:33:41
178,zaozersk,69.4005,32.4476,48.79,89,98,18.92,RU,2023-09-26 17:33:17
179,saint-jean-de-monts,46.7833,-2.0667,63.5,79,84,5.21,FR,2023-09-26 17:33:41
180,tindouf,27.6711,-8.1474,81.05,28,0,9.22,DZ,2023-09-26 17:33:21
181,sinabang,2.4803,96.3801,80.38,79,37,7.87,ID,2023-09-26 17:33:41
182,nurota,40.5614,65.6886,60.84,34,0,2.19,UZ,2023-09-26 17:33:42
183,darwin,-12.4611,130.8418,84.18,58,20,4.61,AU,2023-09-26 17:28:36
184,san sebastian de la gomera,28.0916,-17.1133,75.58,78,20,4.61,ES,2023-09-26 17:33:42
185,okhotsk,59.3833,143.3,48.15,49,68,8.19,RU,2023-09-26 17:33:42
186,bumba,2.1833,22.4667,71.47,95,100,0.83,CD,2023-09-26 17:33:42
187,kavaratti,10.5669,72.642,82.96,74,66,10.58,IN,2023-09-26 17:33:42
188,enterprise,36.0252,-115.2419,91.47,13,0,5.01,US,2023-09-26 17:32:49
189,eastbourne,50.7687,0.2845,61.27,92,100,1.99,GB,2023-09-26 17:33:43
190,iquique,-20.2208,-70.1431,64.44,76,50,3.18,CL,2023-09-26 17:33:43
191,carnarvon,-24.8667,113.6333,79.68,34,3,7.31,AU,2023-09-26 17:33:43
192,souda,35.4844,24.0744,67.33,88,40,0.0,GR,2023-09-26 17:33:43
193,callao,-12.0667,-77.15,66.49,77,100,14.97,PE,2023-09-26 17:33:44
194,borkum,53.5809,6.6915,57.83,77,22,11.95,DE,2023-09-26 17:33:44
195,narrabri,-30.3167,149.7833,83.52,29,51,5.01,AU,2023-09-26 17:32:28
196,phu kradueng,16.8843,101.8847,73.45,99,100,1.21,TH,2023-09-26 17:33:44
197,jayapura,-2.5333,140.7,79.99,88,100,6.11,ID,2023-09-26 17:33:44
198,pasni,25.2631,63.471,78.85,61,5,5.12,PK,2023-09-26 17:33:45
199,laguna,38.421,-121.4238,80.94,38,0,3.0,US,2023-09-26 17:33:45
200,noosa heads,-26.3833,153.15,79.48,53,0,7.16,AU,2023-09-26 17:33:46
201,yinchuan,38.4681,106.2731,61.99,21,100,7.56,CN,2023-09-26 17:33:46
202,kill devil hills,36.0307,-75.676,70.18,81,100,13.8,US,2023-09-26 17:33:46
203,port elizabeth,-33.918,25.5701,57.4,68,0,9.22,ZA,2023-09-26 17:33:46
204,dhidhdhoo,6.8833,73.1,82.65,77,100,11.61,MV,2023-09-26 17:33:47
205,maceio,-9.6658,-35.7353,74.64,94,20,5.75,BR,2023-09-26 17:31:25
206,klyuchi,52.2667,79.1667,39.09,70,1,7.83,RU,2023-09-26 17:33:47
207,pierre,44.3683,-100.351,64.81,71,75,6.91,US,2023-09-26 17:33:47
208,flying fish cove,-10.4217,105.6791,76.68,83,75,14.97,CX,2023-09-26 17:33:48
209,chiang klang,19.2938,100.8617,74.01,99,100,2.01,TH,2023-09-26 17:33:48
210,tolanaro,-25.0319,46.9987,71.67,78,20,9.22,MG,2023-09-26 17:33:48
211,palopo,-2.9996,120.1921,82.33,57,100,3.24,ID,2023-09-26 17:33:48
212,sao joao da barra,-21.6403,-41.0511,77.09,91,46,17.11,BR,2023-09-26 17:32:07
213,dawson creek,55.7666,-120.2362,64.04,36,20,8.05,CA,2023-09-26 17:33:49
214,takanabe,32.1333,131.5,80.49,66,0,2.84,JP,2023-09-26 17:33:49
215,coquimbo,-29.9533,-71.3436,56.93,76,0,8.05,CL,2023-09-26 17:33:49
216,bizerte,37.2744,9.8739,69.8,78,20,0.0,TN,2023-09-26 17:33:49
217,sao joao do piaui,-8.3581,-42.2467,88.45,34,97,4.41,BR,2023-09-26 17:33:49
218,cidreira,-30.1811,-50.2056,64.02,97,100,15.99,BR,2023-09-26 17:33:49
219,pimentel,-6.8367,-79.9342,70.09,78,0,20.71,PE,2023-09-26 17:33:50
220,vizinga,61.0749,50.1031,47.25,95,100,6.98,RU,2023-09-26 17:33:50
221,deniliquin,-35.5333,144.9667,67.06,36,100,9.1,AU,2023-09-26 17:33:50
222,buncrana,55.1333,-7.45,47.19,95,100,5.64,IE,2023-09-26 17:33:50
223,karoi,-16.8099,29.6925,73.87,36,93,6.49,ZW,2023-09-26 17:33:50
224,labuan,5.2767,115.2417,84.09,79,20,0.0,MY,2023-09-26 17:33:51
225,hancheng,32.5186,112.3522,70.83,73,9,3.24,CN,2023-09-26 17:33:51
226,machico,32.7,-16.7667,72.09,78,20,2.3,PT,2023-09-26 17:33:51
227,saint-denis,48.9167,2.3333,61.07,85,0,2.3,FR,2023-09-26 17:33:51
228,balikpapan,-1.2675,116.8289,82.96,66,16,8.21,ID,2023-09-26 17:33:51
229,iskateley,67.6803,53.1512,42.48,96,100,13.71,RU,2023-09-26 17:33:52
230,ndibene dahra,15.3338,-15.4766,84.18,74,92,8.14,SN,2023-09-26 17:33:52
231,haimen,23.1935,116.6142,82.29,75,88,5.84,CN,2023-09-26 17:33:52
232,sao gabriel da cachoeira,-0.1303,-67.0892,79.43,78,71,2.06,BR,2023-09-26 17:33:52
233,noumea,-22.2763,166.4572,73.38,55,29,12.17,NC,2023-09-26 17:29:25
234,bria,6.5423,21.9863,70.52,97,100,3.04,CF,2023-09-26 17:33:53
235,whitehorse,60.7161,-135.0538,42.91,84,100,3.44,CA,2023-09-26 17:33:21
236,ishikawa,26.4233,127.8214,86.34,74,40,9.22,JP,2023-09-26 17:33:53
237,cockburn town,21.4612,-71.1419,84.61,75,6,19.73,TC,2023-09-26 17:33:53
238,susuman,62.7833,148.1667,35.11,67,67,2.98,RU,2023-09-26 17:33:53
239,frontera,26.9333,-101.45,85.14,46,5,11.21,MX,2023-09-26 17:33:54
240,tazovsky,67.4667,78.7,32.47,75,100,12.84,RU,2023-09-26 17:32:19
241,amga,60.8953,131.9608,47.73,54,0,3.51,RU,2023-09-26 17:33:54
242,kapuskasing,49.4169,-82.4331,57.2,72,20,3.44,CA,2023-09-26 17:33:54
243,jerada,34.31,-2.16,63.93,79,1,2.77,MA,2023-09-26 17:33:54
244,chonchi,-42.6128,-73.8092,46.11,95,100,6.62,CL,2023-09-26 17:31:30
245,kencong,-8.2833,113.3667,80.8,64,77,2.48,ID,2023-09-26 17:33:55
246,camayenne,9.535,-13.6878,82.49,83,75,4.61,GN,2023-09-26 17:33:55
247,irati,-25.4672,-50.6511,71.46,66,30,2.77,BR,2023-09-26 17:33:55
248,zapala,-38.8992,-70.0544,46.38,48,8,6.91,AR,2023-09-26 17:33:55
249,bathurst,-33.4166,149.5806,67.96,62,42,1.99,AU,2023-09-26 17:31:13
250,armacao de buzios,-22.7469,-41.8817,73.56,87,100,8.95,BR,2023-09-26 17:33:50
251,ndele,8.4109,20.6473,74.35,89,100,2.62,CF,2023-09-26 17:33:56
252,wewak,-3.5534,143.6268,79.23,85,100,5.28,PG,2023-09-26 17:33:56
253,metahara,8.9,39.9167,72.23,73,83,7.56,ET,2023-09-26 17:33:56
254,port hedland,-20.3167,118.5667,80.65,44,8,6.91,AU,2023-09-26 17:33:56
255,borrazopolis,-23.9411,-51.5875,85.39,36,100,2.04,BR,2023-09-26 17:33:57
256,bel ombre,-4.6167,55.4167,78.64,83,40,14.97,SC,2023-09-26 17:33:57
257,fort irwin,35.2627,-116.6848,87.33,16,0,4.61,US,2023-09-26 17:33:57
258,karyes,37.3,22.5,58.21,78,100,1.88,GR,2023-09-26 17:33:57
259,natal,-5.795,-35.2094,79.02,78,40,9.22,BR,2023-09-26 17:33:57
260,anadyr,64.75,177.4833,41.0,75,40,6.71,RU,2023-09-26 17:33:58
261,tromso,69.6496,18.957,53.62,82,75,21.85,NO,2023-09-26 17:33:58
262,itaporanga,-7.3044,-38.1503,81.95,49,3,10.69,BR,2023-09-26 17:33:58
263,manaure,11.7751,-72.4445,85.37,72,31,16.4,CO,2023-09-26 17:33:58
264,sampit,-2.5333,112.95,85.14,53,5,4.36,ID,2023-09-26 17:33:58
265,zuromin,53.0661,19.9089,58.41,67,0,6.98,PL,2023-09-26 17:33:59
266,belyy yar,53.6039,91.3903,35.49,93,0,4.47,RU,2023-09-26 17:33:59
267,saudarkrokur,65.7461,-19.6394,42.75,89,100,6.64,IS,2023-09-26 17:33:59
268,east ballina,-28.8667,153.5833,83.8,44,2,4.94,AU,2023-09-26 17:33:59
269,mount isa,-20.7333,139.5,83.97,30,0,17.27,AU,2023-09-26 17:33:59
270,turpan,42.9333,89.1667,65.48,31,3,2.51,CN,2023-09-26 17:33:59
271,dul'durga,50.6761,113.5931,47.1,81,100,10.94,RU,2023-09-26 17:34:00
272,morehead city,34.7229,-76.726,71.94,84,0,9.22,US,2023-09-26 17:24:38
273,palangkaraya,-2.2,113.8333,85.23,48,6,4.38,ID,2023-09-26 17:34:00
274,kerikeri,-35.2268,173.9474,62.91,76,3,3.0,NZ,2023-09-26 17:34:00
275,san pedro pochutla,15.7333,-96.4667,87.51,84,5,3.47,MX,2023-09-26 17:34:00
276,nar'yan-mar,67.6713,53.087,42.76,96,100,13.56,RU,2023-09-26 17:34:01
277,rongelap,11.1635,166.8941,83.71,77,97,15.08,MH,2023-09-26 17:34:01
278,polazna,58.2946,56.4055,45.37,85,100,4.27,RU,2023-09-26 17:34:01
279,fortuna,40.5982,-124.1573,67.28,71,20,8.05,US,2023-09-26 17:34:01
280,gantang,26.92,119.6333,83.34,73,1,1.59,CN,2023-09-26 17:34:01
281,patao,11.2202,123.6925,82.76,75,11,11.3,PH,2023-09-26 17:34:01
282,ust-nera,64.5667,143.2,42.69,77,65,8.16,RU,2023-09-26 17:32:21
283,yonggang-up,38.8561,125.4244,72.23,72,17,1.54,KP,2023-09-26 17:34:02
284,xining,36.6167,101.7667,49.95,79,93,1.77,CN,2023-09-26 17:34:02
285,ylivieska,64.0833,24.55,52.32,98,19,5.12,FI,2023-09-26 17:34:02
286,hamilton,39.1834,-84.5333,72.14,69,100,13.8,US,2023-09-26 17:34:03
287,ad dawadimi,24.5077,44.3924,85.35,16,87,6.04,SA,2023-09-26 17:34:03
288,panama city beach,30.1766,-85.8055,74.89,96,99,7.0,US,2023-09-26 17:33:21
289,ocean shores,46.9737,-124.1563,57.31,86,100,12.66,US,2023-09-26 17:34:03
290,celestun,20.8667,-90.4,81.05,79,41,8.1,MX,2023-09-26 17:34:03
291,chernyshevskiy,63.0128,112.4714,38.77,67,100,8.14,RU,2023-09-26 17:34:04
292,cole harbour,44.6724,-63.4751,51.87,84,75,6.91,CA,2023-09-26 17:34:04
293,rakops,-21.0167,24.3333,60.85,39,0,11.41,BW,2023-09-26 17:34:04
294,mahibadhoo,3.7833,72.9667,82.47,78,94,12.75,MV,2023-09-26 17:34:04
295,keflavik,64.0049,-22.5624,50.43,76,75,24.16,IS,2023-09-26 17:34:04
296,mangai,-4.05,19.5333,71.1,97,98,1.39,CD,2023-09-26 17:34:04
297,basco,20.4487,121.9702,83.97,76,13,14.7,PH,2023-09-26 17:34:05
298,tefe,-3.3542,-64.7114,84.31,79,0,2.3,BR,2023-09-26 17:34:05
299,lerwick,60.1545,-1.1494,53.6,88,100,14.45,GB,2023-09-26 17:34:05
300,kidal,18.4411,1.4078,91.17,12,1,3.87,ML,2023-09-26 17:34:05
301,montepuez,-13.1256,38.9997,70.47,75,99,9.08,MZ,2023-09-26 17:34:05
302,namibe,-15.1961,12.1522,63.72,91,11,3.22,AO,2023-09-26 17:34:06
303,kyshtovka,56.555,76.6271,50.09,96,100,5.91,RU,2023-09-26 17:34:06
304,lompoc,34.6391,-120.4579,68.7,77,100,19.57,US,2023-09-26 17:27:25
305,ulanhot,46.0833,122.0833,59.74,26,0,18.5,CN,2023-09-26 17:34:06
306,sisimiut,66.9395,-53.6735,34.72,73,100,10.49,GL,2023-09-26 17:34:06
307,namtsy,62.7161,129.6658,46.63,76,100,3.0,RU,2023-09-26 17:34:07
308,tucuma,-0.1833,-50.05,80.06,78,8,7.31,BR,2023-09-26 17:34:07
309,nacozari viejo,30.4,-109.65,84.92,17,42,9.37,MX,2023-09-26 17:34:07
310,kenai,60.5544,-151.2583,51.98,47,0,8.05,US,2023-09-26 17:34:07
311,lata,40.1629,-8.3327,59.92,81,64,2.19,PT,2023-09-26 17:34:08
312,dambatta,12.433,8.5154,78.91,45,96,8.68,NG,2023-09-26 17:34:08
313,rio branco do sul,-25.19,-49.3142,76.69,74,70,2.48,BR,2023-09-26 17:30:37
314,mount gambier,-37.8333,140.7667,55.53,59,100,7.31,AU,2023-09-26 17:34:09
315,gamba,-2.65,10.0,75.24,89,100,8.28,GA,2023-09-26 17:34:09
316,san luis,-33.295,-66.3356,50.16,31,3,6.85,AR,2023-09-26 17:29:33
317,vrangel',42.7297,133.0839,66.25,76,76,3.06,RU,2023-09-26 17:34:09
318,peniche,39.3558,-9.3811,62.85,93,100,6.31,PT,2023-09-26 17:34:10
319,homer,59.6425,-151.5483,51.69,68,0,3.44,US,2023-09-26 17:34:10
320,perry,37.2506,-83.1999,70.52,76,1,2.84,US,2023-09-26 17:31:27
321,fomboni,-12.28,43.7425,78.01,75,0,14.5,KM,2023-09-26 17:34:10
322,kaa-khem,51.6833,94.7333,39.24,64,7,0.16,RU,2023-09-26 17:34:10
323,chimoio,-19.1164,33.4833,69.57,68,20,1.45,MZ,2023-09-26 17:34:11
324,sai buri,6.7013,101.6168,74.91,73,93,3.87,TH,2023-09-26 17:34:11
325,le port,-20.9373,55.2919,67.57,77,0,4.14,RE,2023-09-26 17:34:11
326,labytnangi,66.6572,66.4183,40.41,94,100,6.96,RU,2023-09-26 17:32:21
327,malvan,16.0667,73.4667,75.65,92,100,5.7,IN,2023-09-26 17:34:11
328,badger,64.8,-147.5333,42.46,65,75,6.91,US,2023-09-26 17:34:12
329,vilyuchinsk,52.9306,158.4028,55.67,57,100,7.07,RU,2023-09-26 17:34:12
330,aldan,58.6031,125.3894,43.63,73,9,3.67,RU,2023-09-26 17:34:12
331,bloemhof,-27.6469,25.607,41.9,81,26,8.86,ZA,2023-09-26 17:34:12
332,nouadhibou,20.931,-17.0347,75.18,69,100,17.27,MR,2023-09-26 17:34:13
333,labrador city,52.9463,-66.9114,51.71,62,0,6.91,CA,2023-09-26 17:30:10
334,yakeshi,49.2833,120.7333,41.76,66,15,8.3,CN,2023-09-26 17:34:13
335,porto torres,40.835,8.3972,62.78,82,4,4.7,IT,2023-09-26 17:34:13
336,horqueta,-23.3428,-57.0597,87.39,40,64,11.83,PY,2023-09-26 17:34:13
337,encrucijada,22.6169,-79.8711,81.16,89,75,4.61,CU,2023-09-26 17:34:14
338,egilsstadir,65.2653,-14.3948,44.51,93,100,10.36,IS,2023-09-26 17:34:14
339,paoua,7.2427,16.4406,70.92,96,98,2.51,CF,2023-09-26 17:34:14
340,mariental,-24.6333,17.9667,52.23,38,0,9.42,NA,2023-09-26 17:34:14
341,ridder,50.355,83.5133,31.51,57,10,4.05,KZ,2023-09-26 17:34:14
342,yelizovo,53.1873,158.3805,55.54,41,0,13.42,RU,2023-09-26 17:34:15
343,porto novo,6.4965,2.6036,80.42,91,67,5.03,BJ,2023-09-26 17:34:15
344,luanda,-8.8368,13.2343,71.6,88,75,4.61,AO,2023-09-26 17:34:15
345,kununurra,-15.7667,128.7333,85.98,58,6,9.22,AU,2023-09-26 17:34:15
346,ascension,30.2169,-90.9001,79.61,92,46,3.47,US,2023-09-26 17:34:16
347,humaita,-7.5061,-63.0208,85.77,44,40,1.48,BR,2023-09-26 17:34:16
348,quepos,9.4236,-84.1652,80.89,85,100,4.07,CR,2023-09-26 17:30:06
349,caluula,11.9661,50.7569,85.14,65,25,3.94,SO,2023-09-26 17:34:16
350,inongo,-1.95,18.2667,70.18,97,41,2.53,CD,2023-09-26 17:34:16
351,atafu village,-8.5421,-172.5159,82.56,72,25,1.59,TK,2023-09-26 17:34:17
352,campeni,46.3667,23.05,55.08,55,0,5.75,RO,2023-09-26 17:34:17
353,eduardo castex,-35.915,-64.2945,49.57,24,0,9.42,AR,2023-09-26 17:34:17
354,novouzensk,50.4592,48.1431,59.9,71,6,6.33,RU,2023-09-26 17:34:17
355,forres,57.6113,-3.6108,50.63,84,75,9.22,GB,2023-09-26 17:34:18
356,bokani,9.4333,5.2,76.12,88,100,1.36,NG,2023-09-26 17:34:18
357,wolmaransstad,-27.1974,25.9831,44.58,71,99,11.5,ZA,2023-09-26 17:34:18
358,poltavka,54.3663,71.7632,53.37,85,100,8.75,RU,2023-09-26 17:34:18
359,sitangkai,4.6628,119.3928,81.23,79,31,15.59,PH,2023-09-26 17:34:18
360,darnah,32.767,22.6367,73.56,63,0,11.21,LY,2023-09-26 17:34:19
361,estacion santa engracia,24.0159,-99.2015,95.11,44,39,14.5,MX,2023-09-26 17:34:19
362,berca,45.2833,26.6833,62.65,40,0,8.59,RO,2023-09-26 17:34:19
363,nishinoomote,30.7333,131.0,81.16,89,40,6.91,JP,2023-09-26 17:34:19
364,luganville,-15.5333,167.1667,77.7,67,98,11.39,VU,2023-09-26 17:34:20
365,nuku'alofa,-21.1333,-175.2,79.14,78,40,13.8,TO,2023-09-26 17:34:20
366,brandon,27.9378,-82.2859,80.55,87,0,3.44,US,2023-09-26 17:34:20
367,yoko,5.5333,12.3167,65.61,93,99,1.99,CM,2023-09-26 17:34:20
368,fukuecho,32.6881,128.8419,80.96,78,40,5.75,JP,2023-09-26 17:34:20
369,malpica,43.3228,-8.8105,59.18,79,100,5.88,ES,2023-09-26 17:34:21
370,palikir - national government center,6.9248,158.1611,92.14,62,75,4.61,FM,2023-09-26 17:34:21
371,tamandare,-8.7597,-35.1047,78.1,77,86,9.53,BR,2023-09-26 17:34:21
372,midvagur,62.0511,-7.1939,50.83,100,100,8.05,FO,2023-09-26 17:34:21
373,isangel,-19.55,169.2667,75.31,69,75,5.75,VU,2023-09-26 17:34:22
374,lijiang,26.8688,100.2207,60.42,90,68,1.45,CN,2023-09-26 17:34:22
375,queenstown,-31.8976,26.8753,42.01,83,30,4.54,ZA,2023-09-26 17:34:22
376,tura,25.5198,90.2201,75.87,90,6,2.57,IN,2023-09-26 17:34:22
377,diamantino,-14.4086,-56.4461,91.02,32,84,4.45,BR,2023-09-26 17:34:22
378,waingapu,-9.6567,120.2641,84.0,57,67,7.85,ID,2023-09-26 17:34:23
379,flin flon,54.7682,-101.865,65.84,61,6,14.03,CA,2023-09-26 17:34:23
380,bredy,52.4153,60.3411,47.86,82,4,6.71,RU,2023-09-26 17:34:23
381,bramming,55.4695,8.7001,58.24,94,75,8.05,DK,2023-09-26 17:34:23
382,tintafor,8.6267,-13.215,78.58,88,8,4.76,SL,2023-09-26 17:34:23
383,claveria,18.6074,121.0832,84.76,74,10,7.96,PH,2023-09-26 17:34:24
384,peschanokopskoye,46.1961,41.0775,60.6,51,0,12.03,RU,2023-09-26 17:34:24
385,nova vicosa,-17.8919,-39.3719,76.96,81,100,16.17,BR,2023-09-26 17:33:08
386,wamba,8.9333,8.6,72.54,89,100,0.76,NG,2023-09-26 17:34:24
387,murun-kuren,49.6342,100.1625,36.19,76,78,0.54,MN,2023-09-26 17:34:25
388,kilju,40.9642,129.3278,70.48,65,40,4.92,KP,2023-09-26 17:34:25
389,eaton,42.6,-84.85,64.22,77,100,8.05,US,2023-09-26 17:29:53
390,char bhadrasan,23.3167,90.2167,81.36,85,18,2.77,BD,2023-09-26 17:34:25
391,huanimaro,20.3667,-101.5,75.85,30,79,11.97,MX,2023-09-26 17:34:25
392,sogndal,61.2283,7.1003,59.38,71,100,5.75,NO,2023-09-26 17:34:26
393,bafoulabe,13.8065,-10.8321,74.44,87,100,0.51,ML,2023-09-26 17:34:26
394,launceston,-41.45,147.1667,56.91,62,75,12.66,AU,2023-09-26 17:34:26
395,ma'an,26.9775,110.7211,76.15,78,52,4.45,CN,2023-09-26 17:34:26
396,tyukhtet,56.5389,89.3011,38.25,85,7,4.47,RU,2023-09-26 17:34:26
397,puerto colombia,10.9878,-74.9547,84.29,83,79,11.63,CO,2023-09-26 17:34:27
398,mount pearl,47.5166,-52.7813,46.62,84,100,13.8,CA,2023-09-26 17:34:27
399,joshimath,30.5667,79.5667,61.39,37,0,4.68,IN,2023-09-26 17:34:27
400,alo,7.4178,6.7371,75.78,93,100,3.09,NG,2023-09-26 17:34:27
401,tshikapa,-6.4167,20.8,72.81,89,73,1.1,CD,2023-09-26 17:34:27
402,kalmunai,7.4167,81.8167,80.76,77,100,0.78,LK,2023-09-26 17:34:28
403,bull savanna,17.8868,-77.5902,80.65,84,86,6.24,JM,2023-09-26 17:34:28
404,adelaide,-34.9333,138.6,58.75,62,75,10.36,AU,2023-09-26 17:33:24
405,saint-pierre,-21.3393,55.4781,65.84,63,0,6.91,RE,2023-09-26 17:34:28
406,hanceville,34.0607,-86.7675,73.65,62,96,3.65,US,2023-09-26 17:34:18
407,hisar,29.1667,75.7167,79.09,55,0,3.91,IN,2023-09-26 17:30:09
408,kirakira,-10.4544,161.9205,84.49,65,80,16.4,SB,2023-09-26 17:34:29
409,hornell,42.3279,-77.6611,53.37,96,99,4.25,US,2023-09-26 17:30:00
410,hirara,24.8,125.2833,84.47,79,40,12.66,JP,2023-09-26 17:34:29
411,shimanovsk,52.0,127.7,52.77,92,100,10.33,RU,2023-09-26 17:34:29
412,macas,-2.3167,-78.1167,68.41,97,19,3.58,EC,2023-09-26 17:34:29
413,nowy dwor gdanski,54.2131,19.1177,56.97,88,89,6.08,PL,2023-09-26 17:34:30
414,daru,-9.0763,143.2092,77.34,85,100,17.36,PG,2023-09-26 17:34:30
415,voskresenskoye,56.8381,45.4317,47.25,89,100,4.81,RU,2023-09-26 17:34:30
416,chapaev,50.2,51.1667,60.24,68,0,5.99,KZ,2023-09-26 17:34:30
417,papao,-17.75,-149.55,80.28,89,52,16.4,PF,2023-09-26 17:34:31
418,west valley,46.5921,-120.6051,62.85,51,75,26.46,US,2023-09-26 17:34:31
419,hilo,19.7297,-155.09,80.37,71,100,6.91,US,2023-09-26 17:32:10
420,ljusdal,61.8288,16.0913,49.26,97,73,4.29,SE,2023-09-26 17:34:32
421,alpena,45.0617,-83.4327,63.61,85,40,11.5,US,2023-09-26 17:34:32
422,bamboo flat,11.7,92.7167,77.09,94,75,3.44,IN,2023-09-26 17:34:32
423,tocopilla,-22.092,-70.1979,64.8,74,14,15.37,CL,2023-09-26 17:31:05
424,cordele,31.9635,-83.7824,71.56,88,40,0.0,US,2023-09-26 17:34:32
425,gazli,40.1333,63.45,65.64,28,0,6.38,UZ,2023-09-26 17:34:33
426,rio gallegos,-51.6226,-69.2181,44.65,61,20,3.44,AR,2023-09-26 17:34:33
427,oamaru,-45.0784,170.9801,50.38,76,100,6.82,NZ,2023-09-26 17:34:33
428,higuera de zaragoza,25.95,-109.2833,91.33,63,0,7.76,MX,2023-09-26 17:34:33
429,itaituba,-4.2761,-55.9836,85.28,44,17,1.92,BR,2023-09-26 17:34:05
430,galveston,29.3669,-94.9669,83.39,76,0,6.91,US,2023-09-26 17:34:34
431,floro,61.5996,5.0328,55.38,82,100,8.05,NO,2023-09-26 17:34:34
432,kostopil',50.8784,26.4519,58.26,83,2,6.93,UA,2023-09-26 17:34:34
433,east london,-33.0153,27.9116,57.6,77,100,22.35,ZA,2023-09-26 17:34:35
434,cabo san lucas,22.8909,-109.9124,91.58,73,20,6.91,MX,2023-09-26 17:32:14
435,gulf shores,30.246,-87.7008,80.38,73,20,5.01,US,2023-09-26 17:33:41
436,touros,-5.1989,-35.4608,79.68,64,100,13.56,BR,2023-09-26 17:34:35
437,vorkuta,67.5,64.0,36.05,97,100,9.64,RU,2023-09-26 17:34:35
438,pacific grove,36.6177,-121.9166,67.14,77,0,10.36,US,2023-09-26 17:33:12
439,robertsport,6.7533,-11.3686,79.23,86,5,6.51,LR,2023-09-26 17:34:36
440,kaset sombun,16.2805,101.9542,76.26,92,100,1.63,TH,2023-09-26 17:34:36
441,chenzhou,25.8,113.0333,78.37,82,60,3.15,CN,2023-09-26 17:34:36
442,kisangani,0.5167,25.2,70.66,88,100,1.25,CD,2023-09-26 17:34:36
443,kievka,50.2619,71.5514,61.41,57,100,5.37,KZ,2023-09-26 17:34:37
444,balkanabat,39.5108,54.3671,71.19,29,83,2.82,TM,2023-09-26 17:34:37
445,xinyuan,37.3,99.0,36.32,62,98,3.67,CN,2023-09-26 17:34:37
446,an nuhud,12.7,28.4333,78.91,63,100,4.43,SD,2023-09-26 17:34:37
447,severnoye,56.3491,78.3619,42.62,86,100,5.77,RU,2023-09-26 17:34:37
448,malabar,-33.9667,151.25,68.99,67,75,4.61,AU,2023-09-26 17:34:38
449,gracemere,-23.4333,150.45,82.35,31,0,6.46,AU,2023-09-26 17:34:38
450,birao,10.2849,22.7882,71.89,90,100,2.06,CF,2023-09-26 17:34:38
451,ariquemes,-9.9133,-63.0408,85.91,45,29,1.72,BR,2023-09-26 17:34:38
452,spring creek,40.7266,-115.5859,76.69,17,7,9.33,US,2023-09-26 17:33:24
453,thurgoona,-36.0451,146.9919,70.66,100,100,5.19,AU,2023-09-26 17:34:39
454,cooma,-36.2333,149.1333,64.99,46,98,3.13,AU,2023-09-26 17:34:39
455,nizhniy ingash,56.2,96.53,44.02,78,98,2.89,RU,2023-09-26 17:34:39
456,santa elena de uairen,4.6167,-61.1333,77.11,57,98,3.58,VE,2023-09-26 17:34:39
457,bomdila,27.25,92.4,59.02,86,7,3.47,IN,2023-09-26 17:34:39
458,kattivakkam,13.2167,80.3167,80.08,84,98,6.98,IN,2023-09-26 17:34:40
459,ryotsu-minato,38.0833,138.4333,69.64,95,100,8.3,JP,2023-09-26 17:34:40
460,acapulco de juarez,16.8634,-99.8901,85.82,74,75,6.91,MX,2023-09-26 17:34:18
461,sierra grande,-41.606,-65.3557,51.28,43,100,6.26,AR,2023-09-26 17:34:40
462,rio san juan,19.6439,-70.0763,81.63,83,5,9.44,DO,2023-09-26 17:34:40
463,mejit,10.2753,170.8646,81.05,83,100,11.36,MH,2023-09-26 17:34:41
464,praia da vitoria,38.7333,-27.0667,68.25,83,40,11.92,PT,2023-09-26 17:34:41
465,rasht,37.2808,49.5832,66.96,68,97,3.67,IR,2023-09-26 17:34:41
466,gonzalez,30.5816,-87.2914,79.81,82,21,1.99,US,2023-09-26 17:34:41
467,thunder bay,48.4001,-89.3168,57.11,82,40,3.44,CA,2023-09-26 17:31:23
468,saldanha,-33.0117,17.9442,53.65,80,0,8.97,ZA,2023-09-26 17:34:42
469,sheridan,44.8333,-106.9173,81.0,39,0,1.01,US,2023-09-26 17:34:42
470,moranbah,-22.0016,148.0466,79.36,29,1,13.09,AU,2023-09-26 17:34:42
471,guilin,25.2819,110.2864,78.91,77,1,4.81,CN,2023-09-26 17:34:42
472,beli,7.8587,10.9719,75.16,93,100,0.25,NG,2023-09-26 17:34:42
473,revda,56.801,59.9303,45.52,86,100,4.29,RU,2023-09-26 17:34:43
474,fisterra,42.9049,-9.2629,60.85,84,99,7.11,ES,2023-09-26 17:34:43
475,mandalgovi,45.7625,106.2708,38.17,37,0,11.63,MN,2023-09-26 17:34:43
476,zhangye,38.9342,100.4517,60.08,45,24,9.42,CN,2023-09-26 17:34:43
477,kolwezi,-10.7148,25.4667,68.83,66,95,3.06,CD,2023-09-26 17:34:44
478,cabedelo,-6.9811,-34.8339,77.67,73,94,9.69,BR,2023-09-26 17:34:44
479,toritto,40.9982,16.6798,66.27,81,0,4.61,IT,2023-09-26 17:34:44
480,arteche,12.2645,125.4048,84.25,72,61,7.07,PH,2023-09-26 17:34:44
481,galle,6.0367,80.217,78.37,88,100,9.06,LK,2023-09-26 17:34:44
482,holualoa,19.6228,-155.9522,78.55,69,75,12.66,US,2023-09-26 17:34:45
483,mokhsogollokh,61.4681,128.9203,48.63,66,14,4.32,RU,2023-09-26 17:34:45
484,nova sintra,14.8667,-24.7167,74.8,81,100,14.43,CV,2023-09-26 17:34:45
485,porbandar,21.6422,69.6093,79.48,72,22,6.55,IN,2023-09-26 17:34:45
486,lospalos,-8.5186,127.0025,80.96,52,15,10.36,TL,2023-09-26 17:34:45
487,uturoa,-16.7333,-151.4333,77.72,79,28,16.44,PF,2023-09-26 17:34:46
488,carolina beach,34.0352,-77.8936,74.43,84,100,9.44,US,2023-09-26 17:33:05
489,purpe,64.4803,76.6897,36.23,85,100,7.05,RU,2023-09-26 17:34:46
490,port erin,54.0849,-4.751,55.27,88,20,11.5,IM,2023-09-26 17:34:46
491,abeche,13.8292,20.8324,84.74,40,18,3.87,TD,2023-09-26 17:34:47
492,camana,-16.6228,-72.7111,64.81,85,99,10.04,PE,2023-09-26 17:34:47
493,changling,44.2653,124.0005,63.0,78,94,3.0,CN,2023-09-26 17:34:47
494,tidjikja,18.5564,-11.4271,92.39,20,16,7.52,MR,2023-09-26 17:34:47
495,macau,22.2006,113.5461,83.95,84,20,9.22,MO,2023-09-26 17:34:46
496,aleksandrovsk-sakhalinskiy,50.8975,142.1561,59.68,72,97,7.34,RU,2023-09-26 17:34:48
497,huarmey,-10.0681,-78.1522,66.0,86,78,9.8,PE,2023-09-26 17:34:48
498,bathsheba,13.2167,-59.5167,83.01,89,20,4.61,BB,2023-09-26 17:34:48
499,tosontsengel,48.7567,98.2839,29.75,37,100,4.43,MN,2023-09-26 17:34:48
500,hammam bou hadjar,35.3789,-0.9678,67.3,72,0,4.88,DZ,2023-09-26 17:34:48
501,souillac,-20.5167,57.5167,71.98,78,75,11.5,MU,2023-09-26 17:34:49
502,kemise,10.7167,39.8667,67.82,66,91,4.59,ET,2023-09-26 17:34:49
503,wanxian,30.8039,108.3897,73.45,87,94,1.81,CN,2023-09-26 17:34:49
504,monterey,36.2505,-121.2516,72.18,1,0,13.06,US,2023-09-26 17:34:49
505,krasnoturansk,54.3186,91.5639,41.45,77,55,2.86,RU,2023-09-26 17:34:49
506,ar ruways,24.1103,52.7306,88.29,62,1,12.84,AE,2023-09-26 17:34:50
507,mamuju,-2.6748,118.8885,84.22,66,78,1.45,ID,2023-09-26 17:34:50
508,terra nova,-12.3667,-40.6667,72.12,58,29,7.29,BR,2023-09-26 17:34:50
509,tobelo,1.7284,128.0095,82.92,66,100,2.82,ID,2023-09-26 17:34:50
510,berdigestyakh,62.0989,126.6992,50.0,81,73,4.99,RU,2023-09-26 17:34:50
511,katsuren-haebaru,26.3369,127.8719,86.38,74,40,9.22,JP,2023-09-26 17:34:51
512,larache,35.1932,-6.1557,71.51,79,8,5.01,MA,2023-09-26 17:33:20
513,banda aceh,5.5577,95.3222,80.64,80,99,15.21,ID,2023-09-26 17:34:51
514,la passe,45.5549,-0.8967,61.03,89,100,6.31,FR,2023-09-26 17:34:51
515,hauterive,46.0901,3.4459,54.36,77,0,2.06,FR,2023-09-26 17:34:51
516,vilyuysk,63.7553,121.6247,43.45,60,100,7.05,RU,2023-09-26 17:34:51
517,urzhar,47.093,81.6294,46.11,35,3,4.29,KZ,2023-09-26 17:34:52
518,kish,26.5578,54.0194,88.07,70,0,4.61,IR,2023-09-26 17:34:52
519,cuilapan de guerrero,17.0,-96.7667,76.59,31,40,5.75,MX,2023-09-26 17:34:52
520,kuanda,56.3161,116.0806,50.72,68,6,3.44,RU,2023-09-26 17:34:52
521,chak two hundred forty-nine thal development authority,31.1796,71.2095,80.19,41,0,5.66,PK,2023-09-26 17:34:53
522,oum hadjer,13.2954,19.6966,87.03,38,15,6.91,TD,2023-09-26 17:34:53
523,winnemucca,40.973,-117.7357,78.85,14,0,10.36,US,2023-09-26 17:34:53
524,jiangyou,31.7667,104.7167,65.37,92,100,0.47,CN,2023-09-26 17:34:54
525,axim,4.8699,-2.2405,76.32,92,6,5.44,GH,2023-09-26 17:34:54
526,pangody,65.85,74.4859,32.43,83,81,3.38,RU,2023-09-26 17:32:22
527,shingu,33.7333,135.9833,83.84,58,6,2.91,JP,2023-09-26 17:34:54
528,mamu kanjan,30.8333,72.8,78.21,52,0,4.43,PK,2023-09-26 17:34:55
529,atherton,53.5237,-2.4935,53.89,88,100,4.65,GB,2023-09-26 17:34:48
530,de aar,-30.6497,24.0123,42.98,73,0,14.0,ZA,2023-09-26 17:34:55
531,port moresby,-9.4431,147.1797,85.42,62,75,11.5,PG,2023-09-26 17:34:55
532,capo d'orlando,38.1435,14.7305,67.41,70,34,2.82,IT,2023-09-26 17:34:56
533,manismata,-2.4667,111.0333,82.89,62,1,6.13,ID,2023-09-26 17:34:56
534,plettenberg bay,-34.0527,23.3716,56.64,80,68,2.95,ZA,2023-09-26 17:34:56
535,santana,-0.0583,-51.1817,86.18,74,20,10.36,BR,2023-09-26 17:31:41
536,angaur state,6.906,134.13,82.72,79,100,23.91,PW,2023-09-26 17:34:57
537,aykhal,66.0,111.5,34.36,86,100,20.38,RU,2023-09-26 17:34:57
538,cidade velha,14.9167,-23.6167,79.27,89,75,6.91,CV,2023-09-26 17:34:57
539,coahuayana de hidalgo,18.7,-103.6583,82.33,84,70,2.91,MX,2023-09-26 17:34:57
540,kailua-kona,19.6406,-155.9956,82.18,68,75,12.66,US,2023-09-26 17:34:57
541,villa de arista,22.65,-100.8333,81.41,46,19,18.86,MX,2023-09-26 17:34:58
542,chimbote,-9.0853,-78.5783,65.21,86,76,10.18,PE,2023-09-26 17:34:35
543,mahina,-17.5065,-149.489,80.37,74,75,16.11,PF,2023-09-26 17:34:58
544,auki,-8.7676,160.7034,87.06,61,94,10.83,SB,2023-09-26 17:34:58
545,topki,55.2769,85.6163,32.41,82,0,4.72,RU,2023-09-26 17:34:58
546,tanout,14.9709,8.8879,89.11,13,6,0.78,NE,2023-09-26 17:34:59
547,remire-montjoly,4.9167,-52.2667,80.64,89,0,3.44,GF,2023-09-26 17:34:59
548,puntarenas,9.9763,-84.8384,81.19,85,100,6.22,CR,2023-09-26 17:30:27
549,lacombe,52.4668,-113.7353,55.94,48,3,5.5,CA,2023-09-26 17:34:59
550,mariinsk,56.2139,87.7472,37.31,82,6,4.43,RU,2023-09-26 17:34:59
551,conception bay south,47.4999,-52.9981,47.23,84,37,13.87,CA,2023-09-26 17:30:07
552,geraldton,-28.7667,114.6,81.01,34,0,21.85,AU,2023-09-26 17:31:19
553,juan aldama,24.2908,-103.3944,70.12,42,8,9.06,MX,2023-09-26 17:35:00
554,yarmouth,41.7057,-70.2286,54.63,85,40,20.0,US,2023-09-26 17:32:23
555,fort bragg,35.139,-79.006,68.77,82,100,6.91,US,2023-09-26 17:35:00
556,n'zeto,-7.2312,12.8666,73.51,87,81,7.14,AO,2023-09-26 17:35:01
557,makoua,0.0069,15.6333,73.6,94,42,2.1,CG,2023-09-26 17:35:01
558,mahanje,-9.9333,35.3333,63.05,73,40,3.24,TZ,2023-09-26 17:35:01
559,manicore,-5.8092,-61.3003,88.11,42,29,1.63,BR,2023-09-26 17:35:01
560,ouesso,1.6136,16.0517,73.83,86,41,2.21,CG,2023-09-26 17:35:01
561,goure,13.9835,10.2704,87.49,14,8,3.24,NE,2023-09-26 17:35:02
562,newport,51.5877,-2.9984,54.21,90,100,3.91,GB,2023-09-26 17:35:02
563,kovdor,67.5662,30.4758,49.08,75,100,10.0,RU,2023-09-26 17:35:02
564,kilinochchi,9.3961,80.3982,80.98,80,99,13.67,LK,2023-09-26 17:35:02
565,undurkhaan,47.3194,110.6556,43.45,52,8,6.44,MN,2023-09-26 17:35:03
566,la ronge,55.1001,-105.2842,75.45,38,20,17.27,CA,2023-09-26 17:35:03
567,navia,43.5354,-6.7194,61.93,96,100,3.27,ES,2023-09-26 17:35:03
568,hemsby,52.6971,1.6918,57.99,89,100,7.34,GB,2023-09-26 17:35:03
569,labasa,-16.4167,179.3833,82.74,75,98,5.61,FJ,2023-09-26 17:35:04
570,illizi,26.4833,8.4667,80.4,24,0,7.36,DZ,2023-09-26 17:35:04
571,disa,24.25,72.1667,79.93,78,3,3.15,IN,2023-09-26 17:35:04
572,grand falls-windsor,48.9332,-55.6649,44.51,88,4,3.02,CA,2023-09-26 17:30:29
