City ID,City,Latitude,Longitude,Temperature,Humidity,Cloudiness,Wind Speed,Country,Date/Time
0,kralendijk,12.15,-68.2667,84.18,79,100,12.66,BQ,2023-09-22 20:40:41
1,adamstown,-25.066,-130.1015,69.26,88,2,15.3,PN,2023-09-22 20:37:43
2,yellowknife,62.456,-114.3525,64.42,68,100,14.97,CA,2023-09-22 20:40:41
3,pisco,-13.7,-76.2167,64.45,82,0,10.36,PE,2023-09-22 20:36:16
4,bilibino,68.0546,166.4372,38.98,82,100,0.25,RU,2023-09-22 20:34:33
5,queenstown,-31.8976,26.8753,45.99,87,69,2.39,ZA,2023-09-22 20:40:42
6,lamarque,-39.423,-65.7021,52.9,79,100,11.3,AR,2023-09-22 20:40:42
7,bosaso,11.2842,49.1816,91.31,52,72,9.51,SO,2023-09-22 20:40:42
8,georgetown,5.4112,100.3354,84.07,83,20,5.75,MY,2023-09-22 20:35:49
9,happy valley-goose bay,53.3168,-60.3315,52.11,76,100,6.91,CA,2023-09-22 20:40:43
10,port lincoln,-34.7333,135.8667,66.85,54,0,7.54,AU,2023-09-22 20:36:01
11,port-aux-francais,-49.35,70.2167,36.3,77,100,42.64,TF,2023-09-22 20:40:43
12,stanley,54.868,-1.6985,48.09,93,40,3.44,GB,2023-09-22 20:34:43
13,grytviken,-54.2811,-36.5092,19.38,82,17,11.48,GS,2023-09-22 20:37:47
14,kerikeri,-35.2268,173.9474,62.91,94,100,5.01,NZ,2023-09-22 20:35:16
15,tateyama,34.9833,139.8667,74.1,83,100,13.67,JP,2023-09-22 20:40:43
16,nalgonda,17.05,79.2667,83.44,72,100,5.14,IN,2023-09-22 20:40:44
17,albany,42.6001,-73.9662,54.77,81,97,2.51,US,2023-09-22 20:35:27
18,ilulissat,69.2167,-51.1,30.22,37,18,28.77,GL,2023-09-22 20:34:32
19,puerto ayora,-0.7393,-90.3518,74.55,91,61,3.0,EC,2023-09-22 20:37:55
20,olonkinbyen,70.9221,-8.7187,37.76,73,86,15.61,SJ,2023-09-22 20:34:55
21,puerto natales,-51.7236,-72.4875,33.17,90,32,5.95,CL,2023-09-22 20:31:17
22,hammerfest,70.6634,23.6821,46.85,100,75,4.61,NO,2023-09-22 20:40:45
23,port elizabeth,-33.918,25.5701,60.69,78,100,6.91,ZA,2023-09-22 20:34:49
24,college,64.8569,-147.8028,42.75,71,75,0.0,US,2023-09-22 20:35:12
25,edinburgh of the seven seas,-37.0676,-12.3116,54.54,71,97,28.32,SH,2023-09-22 20:40:45
26,ushuaia,-54.8,-68.3,40.66,56,20,29.93,AR,2023-09-22 20:31:25
27,bethel,41.3712,-73.414,56.98,76,0,5.75,US,2023-09-22 20:34:36
28,iqaluit,63.7506,-68.5145,29.7,92,100,6.91,CA,2023-09-22 20:30:13
29,hamilton,39.1834,-84.5333,66.11,62,0,9.22,US,2023-09-22 20:30:22
30,papatowai,-46.5619,169.4708,43.9,90,100,6.93,NZ,2023-09-22 20:34:39
31,kuanda,56.3161,116.0806,60.04,44,19,1.57,RU,2023-09-22 20:40:46
32,vadso,70.0744,29.7487,50.16,93,100,10.36,NO,2023-09-22 20:34:49
33,west island,-12.1568,96.8225,80.58,69,24,16.11,CC,2023-09-22 20:34:39
34,waitangi,-43.9535,-176.5597,57.81,90,100,8.01,NZ,2023-09-22 20:34:40
35,newberry,34.2746,-81.6187,64.6,71,94,9.31,US,2023-09-22 20:40:47
36,malpica,43.3228,-8.8105,54.95,66,45,6.35,ES,2023-09-22 20:40:47
37,shevchenko,48.5,35.0,63.77,48,26,8.48,UA,2023-09-22 20:40:47
38,whitehorse,60.7161,-135.0538,42.44,89,75,6.91,CA,2023-09-22 20:35:58
39,severo-yeniseyskiy,60.3725,93.0408,48.27,81,100,10.47,RU,2023-09-22 20:38:08
40,blackmans bay,-43.0167,147.3167,58.35,71,98,7.05,AU,2023-09-22 20:34:32
41,mendi,-6.1761,143.6513,62.76,83,97,3.76,PG,2023-09-22 20:40:48
42,alta,69.9689,23.2717,45.66,93,100,5.75,NO,2023-09-22 20:40:48
43,pionerskiy,54.9508,20.2275,59.76,84,100,4.83,RU,2023-09-22 20:40:48
44,jaruco,23.0431,-82.0108,72.32,81,98,3.38,CU,2023-09-22 20:40:48
45,dudinka,69.4058,86.1778,34.63,80,98,21.94,RU,2023-09-22 20:35:09
46,talnakh,69.4865,88.3972,34.21,84,100,14.85,RU,2023-09-22 20:33:54
47,hawaiian paradise park,19.5933,-154.9731,78.08,81,75,8.05,US,2023-09-22 20:37:58
48,port blair,11.6667,92.75,80.64,89,75,8.05,IN,2023-09-22 20:36:27
49,malango,-2.9627,119.9001,85.08,48,10,5.73,ID,2023-09-22 20:35:57
50,hwange,-18.3693,26.5019,69.19,33,0,3.29,ZW,2023-09-22 20:40:49
51,aasiaat,68.7098,-52.8699,16.86,77,78,10.33,GL,2023-09-22 20:34:58
52,atar,20.5169,-13.0499,88.34,22,22,10.22,MR,2023-09-22 20:40:50
53,newnham,-41.3833,147.1333,63.46,45,3,5.75,AU,2023-09-22 20:40:50
54,isafjordur,66.0755,-23.124,37.06,79,96,6.46,IS,2023-09-22 20:34:44
55,waingapu,-9.6567,120.2641,87.28,52,28,10.92,ID,2023-09-22 20:35:22
56,vorgashor,67.5833,63.95,36.34,87,99,7.61,RU,2023-09-22 20:35:01
57,margaret river,-33.95,115.0667,62.55,64,35,9.31,AU,2023-09-22 20:34:37
58,chu,43.5983,73.7614,62.73,39,0,6.08,KZ,2023-09-22 20:40:51
59,hithadhoo,-0.6,73.0833,82.72,75,93,14.23,MV,2023-09-22 20:34:45
60,silvi,42.5456,14.122,65.57,90,100,4.61,IT,2023-09-22 20:40:51
61,bogra,24.85,89.3667,84.76,75,69,12.53,BD,2023-09-22 20:40:51
62,alingsas,57.9303,12.5335,53.24,99,34,4.03,SE,2023-09-22 20:40:51
63,loreto,22.2667,-101.9667,65.05,53,5,13.18,MX,2023-09-22 20:40:51
64,sanghar,26.0466,68.9481,88.9,63,48,12.64,PK,2023-09-22 20:40:52
65,jamestown,42.097,-79.2353,55.47,77,0,3.44,US,2023-09-22 20:30:32
66,utrik,11.2278,169.8474,84.22,77,70,16.75,MH,2023-09-22 20:34:47
67,sibiti,-3.6819,13.3499,71.28,87,100,3.47,CG,2023-09-22 20:40:52
68,port augusta,-32.5,137.7667,79.97,16,4,5.66,AU,2023-09-22 20:35:41
69,kapuskasing,49.4169,-82.4331,59.0,72,100,8.05,CA,2023-09-22 20:38:33
70,bocas del toro,9.3333,-82.25,75.06,79,46,5.19,PA,2023-09-22 20:40:53
71,bredasdorp,-34.5322,20.0403,53.37,85,100,3.83,ZA,2023-09-22 20:34:39
72,havran,39.5583,27.0983,58.62,82,0,3.44,TR,2023-09-22 20:40:53
73,longyearbyen,78.2186,15.6401,22.84,80,40,6.91,SJ,2023-09-22 20:32:03
74,saipan,15.1355,145.701,86.7,70,40,5.75,MP,2023-09-22 20:35:09
75,san luis obispo,35.3666,-120.5343,57.06,81,0,8.05,US,2023-09-22 20:40:54
76,nagqu,31.5,92.0,52.5,52,8,16.82,CN,2023-09-22 20:39:08
77,kone,-21.0595,164.8658,72.19,83,85,6.73,NC,2023-09-22 20:35:49
78,kingston,17.997,-76.7936,79.75,93,20,9.22,JM,2023-09-22 20:31:40
79,noyabrsk,63.1994,75.4507,37.26,95,100,18.99,RU,2023-09-22 20:40:54
80,nemuro,43.3236,145.575,63.7,77,19,7.56,JP,2023-09-22 20:38:20
81,kununurra,-15.7667,128.7333,98.58,16,3,12.66,AU,2023-09-22 20:39:25
82,tomohon,1.3346,124.8392,85.14,49,10,2.73,ID,2023-09-22 20:40:55
83,swift current,50.2834,-107.8014,58.01,77,75,9.22,CA,2023-09-22 20:40:55
84,myeik,12.4333,98.6,82.53,80,93,2.51,MM,2023-09-22 20:40:55
85,sakaraha,-22.9,44.5333,66.24,37,0,4.74,MG,2023-09-22 20:40:56
86,tura,25.5198,90.2201,76.46,93,100,3.8,IN,2023-09-22 20:35:59
87,thompson,55.7435,-97.8558,60.96,55,40,8.05,CA,2023-09-22 20:35:43
88,alice springs,-23.7,133.8833,80.15,12,0,11.5,AU,2023-09-22 20:35:19
89,dushanbe,38.5577,68.7797,62.42,55,0,2.24,TJ,2023-09-22 20:40:57
90,kattivakkam,13.2167,80.3167,87.08,79,65,12.8,IN,2023-09-22 20:40:57
91,polyarnyy,69.1989,33.4478,54.72,92,97,18.77,RU,2023-09-22 20:34:58
92,bathsheba,13.2167,-59.5167,83.01,83,20,6.91,BB,2023-09-22 20:36:03
93,sarupathar,26.1984,93.8094,82.96,78,93,2.33,IN,2023-09-22 20:40:58
94,port saint john's,-31.6229,29.5448,65.26,86,100,0.09,ZA,2023-09-22 20:34:57
95,dalandzadgad,43.5708,104.425,62.96,41,14,8.03,MN,2023-09-22 20:36:42
96,camarinas,43.1311,-9.1817,54.9,84,59,7.67,ES,2023-09-22 20:40:58
97,langsa,4.4683,97.9683,83.71,74,98,2.66,ID,2023-09-22 20:40:58
98,ugbokpo,7.6565,7.8664,73.6,97,100,3.49,NG,2023-09-22 20:40:59
99,crane,31.3974,-102.3501,86.25,41,50,18.9,US,2023-09-22 20:34:47
100,avarua,-21.2078,-159.775,69.85,52,40,9.22,CK,2023-09-22 20:34:42
101,howard springs,-12.497,131.047,91.09,58,75,5.7,AU,2023-09-22 20:35:57
102,tucurui,-3.7661,-49.6725,75.47,84,89,4.5,BR,2023-09-22 20:40:59
103,bamboo flat,11.7,92.7167,80.69,89,75,8.05,IN,2023-09-22 20:34:49
104,tiksi,71.6872,128.8694,36.81,68,12,10.71,RU,2023-09-22 20:34:41
105,fabens,31.5023,-106.1586,86.74,31,53,2.68,US,2023-09-22 20:41:00
106,lihue,21.9789,-159.3672,79.02,71,75,17.27,US,2023-09-22 20:35:05
107,panacan,9.2463,118.4082,82.31,80,84,8.61,PH,2023-09-22 20:41:00
108,san antonio de pale,-1.4014,5.6325,76.55,83,85,12.64,GQ,2023-09-22 20:38:08
109,kruisfontein,-34.0033,24.7314,57.88,88,100,4.5,ZA,2023-09-22 20:35:02
110,piti village,13.4626,144.6933,86.83,80,40,9.22,GU,2023-09-22 20:41:00
111,afaahiti,-17.75,-149.2833,75.07,91,100,12.41,PF,2023-09-22 20:35:24
112,kushiro,42.975,144.3747,72.55,46,20,6.91,JP,2023-09-22 20:41:01
113,atafu village,-8.5421,-172.5159,83.41,75,37,9.86,TK,2023-09-22 20:34:56
114,quellon,-43.1167,-73.6167,39.45,87,75,6.91,CL,2023-09-22 20:35:29
115,gorontalo,0.5412,123.0595,89.35,47,36,9.04,ID,2023-09-22 20:41:01
116,santa cruz,-17.8,-63.1667,80.06,78,10,8.05,BO,2023-09-22 20:40:37
117,newman,37.3138,-121.0208,67.55,71,16,1.99,US,2023-09-22 20:34:55
118,kurkino,53.4257,38.6582,55.62,51,26,7.63,RU,2023-09-22 20:41:02
119,bridgewater,44.3835,-64.5155,48.88,91,100,6.91,CA,2023-09-22 20:32:31
120,lompoc,34.6391,-120.4579,60.51,81,40,5.01,US,2023-09-22 20:35:19
121,fale old settlement,-9.3852,-171.2468,82.09,78,93,14.05,TK,2023-09-22 20:35:48
122,qaqortoq,60.7167,-46.0333,36.93,94,99,3.6,GL,2023-09-22 20:35:15
123,nova sintra,14.8667,-24.7167,75.72,84,97,13.0,CV,2023-09-22 20:36:11
124,portland,45.5234,-122.6762,64.29,52,0,1.99,US,2023-09-22 20:31:07
125,hermanus,-34.4187,19.2345,52.81,79,100,8.03,ZA,2023-09-22 20:36:06
126,chyorny yar,48.0624,46.1091,62.13,46,0,7.56,RU,2023-09-22 20:41:03
127,christchurch,-43.5333,172.6333,51.24,82,100,6.91,NZ,2023-09-22 20:37:48
128,nema,57.5067,50.5011,60.84,68,87,3.22,RU,2023-09-22 20:36:00
129,tozeur,33.9197,8.1335,84.6,42,100,14.97,TN,2023-09-22 20:41:04
130,bikenibeu village,1.3673,173.1241,87.76,70,40,3.44,KI,2023-09-22 20:41:04
131,hatvan,47.6667,19.6833,68.22,67,81,2.62,HU,2023-09-22 20:41:04
132,ulu tiram,1.6,103.8167,87.49,72,20,2.3,MY,2023-09-22 20:41:05
133,richards bay,-28.783,32.0377,67.12,96,60,4.18,ZA,2023-09-22 20:35:59
134,st. john's,47.5649,-52.7093,40.78,84,0,9.22,CA,2023-09-22 20:36:05
135,lebu,-37.6167,-73.65,47.07,76,11,9.08,CL,2023-09-22 20:31:27
136,invercargill,-46.4,168.35,49.01,86,99,3.0,NZ,2023-09-22 20:34:45
137,acapulco de juarez,16.8634,-99.8901,85.82,74,100,6.91,MX,2023-09-22 20:36:10
138,gokceada,40.2011,25.909,61.88,69,1,1.77,TR,2023-09-22 20:41:06
139,pokaran,26.9167,71.9167,88.21,56,52,10.36,IN,2023-09-22 20:41:06
140,klyuchi,52.2667,79.1667,50.79,61,52,15.35,RU,2023-09-22 20:35:14
141,ust-nera,64.5667,143.2,37.58,62,78,5.41,RU,2023-09-22 20:35:38
142,namibe,-15.1961,12.1522,64.99,91,88,5.46,AO,2023-09-22 20:35:10
143,yeppoon,-23.1333,150.7333,76.78,53,6,21.0,AU,2023-09-22 20:41:07
144,oriximina,-1.7656,-55.8661,75.78,81,56,2.95,BR,2023-09-22 20:41:07
145,kodiak,57.79,-152.4072,47.71,76,100,5.75,US,2023-09-22 20:35:25
146,broken hill,-31.95,141.4333,74.86,20,86,8.28,AU,2023-09-22 20:36:21
147,castillos,-34.1667,-53.8333,51.93,93,62,4.79,UY,2023-09-22 20:33:24
148,kayangel,8.0823,134.7173,83.08,80,100,14.85,PW,2023-09-22 20:34:37
149,shalqar,47.8333,59.6,62.62,43,3,6.06,KZ,2023-09-22 20:37:52
150,winnemucca,40.973,-117.7357,44.65,39,0,0.0,US,2023-09-22 20:41:08
151,sao joao da barra,-21.6403,-41.0511,70.36,88,8,14.47,BR,2023-09-22 20:37:54
152,sangareddi,17.6294,78.0917,77.32,80,100,3.85,IN,2023-09-22 20:41:08
153,molde,62.7375,7.1591,48.06,93,75,4.61,NO,2023-09-22 20:41:08
154,el porvenir,13.7617,-87.3458,79.93,76,45,4.99,HN,2023-09-22 20:41:08
155,okhotsk,59.3833,143.3,50.23,56,11,6.82,RU,2023-09-22 20:41:09
156,bonthe,7.5264,-12.505,76.91,89,100,7.99,SL,2023-09-22 20:41:09
157,arraial do cabo,-22.9661,-42.0278,69.01,93,16,15.28,BR,2023-09-22 20:34:45
158,bitkine,11.9801,18.2138,75.79,66,100,10.8,TD,2023-09-22 20:41:09
159,gali,42.6265,41.7381,67.75,58,93,3.44,GE,2023-09-22 20:41:09
160,kaedi,16.1465,-13.5047,89.4,49,100,7.36,MR,2023-09-22 20:36:17
161,torghay,49.6339,63.4981,63.93,63,89,7.94,KZ,2023-09-22 20:41:10
162,larino,41.8055,14.9193,72.73,80,100,1.54,IT,2023-09-22 20:41:10
163,praia da vitoria,38.7333,-27.0667,73.65,94,75,8.16,PT,2023-09-22 20:35:31
164,lata,40.1629,-8.3327,51.93,93,36,2.75,PT,2023-09-22 20:38:05
165,ribeira grande,38.5167,-28.7,71.78,92,41,3.0,PT,2023-09-22 20:34:36
166,chilliwack,49.1747,-121.9443,59.45,77,3,0.0,CA,2023-09-22 20:41:11
167,sorong,-0.8833,131.25,82.38,75,56,11.01,ID,2023-09-22 20:41:11
168,vila franca do campo,37.7167,-25.4333,74.88,99,50,4.16,PT,2023-09-22 20:35:27
169,bogale,16.2833,95.4,83.48,82,99,5.84,MM,2023-09-22 20:41:12
170,lincoln city,44.9582,-124.0179,57.61,75,72,5.1,US,2023-09-22 20:39:23
171,gamba,-2.65,10.0,75.34,88,100,7.49,GA,2023-09-22 20:39:29
172,mega,4.05,38.3,58.87,91,92,15.7,ET,2023-09-22 20:41:12
173,lyskovo,56.0328,45.0422,57.78,62,9,4.7,RU,2023-09-22 20:41:12
174,bambari,5.768,20.6757,68.7,95,100,1.43,CF,2023-09-22 20:41:13
175,shingu,33.7333,135.9833,79.84,76,99,4.83,JP,2023-09-22 20:38:54
176,lakota,5.8528,-5.6883,71.44,99,97,2.57,CI,2023-09-22 20:41:13
177,weno,7.4515,151.8468,84.24,79,100,16.98,FM,2023-09-22 20:36:07
178,brookings,44.3114,-96.7984,63.88,91,100,5.75,US,2023-09-22 20:34:03
179,porto novo,6.4965,2.6036,75.15,94,63,4.18,BJ,2023-09-22 20:35:17
180,amga,60.8953,131.9608,41.14,96,100,4.65,RU,2023-09-22 20:38:12
181,port alfred,-33.5906,26.891,58.17,97,100,1.01,ZA,2023-09-22 20:35:07
182,geraldton,-28.7667,114.6,66.61,68,75,16.11,AU,2023-09-22 20:35:10
183,cidreira,-30.1811,-50.2056,64.71,96,100,7.78,BR,2023-09-22 20:34:38
184,betio village,1.358,172.9211,87.84,71,74,2.53,KI,2023-09-22 20:38:56
185,zaragoza,41.6561,-0.8773,57.24,65,20,6.91,ES,2023-09-22 20:41:14
186,east london,-33.0153,27.9116,64.6,78,99,3.42,ZA,2023-09-22 20:30:11
187,vila velha,-20.3297,-40.2925,73.94,85,20,10.36,BR,2023-09-22 20:35:49
188,iskateley,67.6803,53.1512,51.35,97,100,14.67,RU,2023-09-22 20:35:34
189,yanchep,-31.55,115.6833,63.77,63,86,11.65,AU,2023-09-22 20:41:15
190,hasaki,35.7333,140.8333,72.0,84,100,19.24,JP,2023-09-22 20:38:24
191,tobelo,1.7284,128.0095,83.68,73,44,3.09,ID,2023-09-22 20:39:30
192,hugo,45.16,-92.9933,66.94,85,40,6.91,US,2023-09-22 20:41:15
193,fortuna,40.5982,-124.1573,54.5,91,0,0.0,US,2023-09-22 20:39:05
194,edd,13.9297,41.6925,89.65,70,70,7.25,ER,2023-09-22 20:41:16
195,wailua homesteads,22.0669,-159.378,77.94,71,75,17.27,US,2023-09-22 20:35:08
196,tsiombe,-25.3,45.4833,72.59,47,0,5.1,MG,2023-09-22 20:38:15
197,ambon,-3.6954,128.1814,84.34,79,40,8.05,ID,2023-09-22 20:41:16
198,pandan,14.0453,124.1694,84.9,73,100,2.71,PH,2023-09-22 20:41:16
199,sitka,57.0531,-135.33,49.89,76,75,8.05,US,2023-09-22 20:33:21
200,vanino,49.0869,140.2543,63.14,36,39,5.17,RU,2023-09-22 20:41:17
201,rongelap,11.1635,166.8941,84.78,75,90,16.33,MH,2023-09-22 20:38:17
202,hadibu,12.65,54.0333,80.47,82,60,12.53,YE,2023-09-22 20:34:43
203,karbala,32.616,44.0249,87.78,18,0,8.43,IQ,2023-09-22 20:41:18
204,harlingen,26.1906,-97.6961,83.3,86,0,10.36,US,2023-09-22 20:39:39
205,mejit,10.2753,170.8646,83.35,79,81,20.54,MH,2023-09-22 20:35:03
206,skovorodino,53.9833,123.9167,64.13,32,0,5.59,RU,2023-09-22 20:41:18
207,roghun,38.7826,69.8708,63.19,37,0,3.42,TJ,2023-09-22 20:41:19
208,fort st. john,56.2499,-120.8529,62.49,25,0,10.36,CA,2023-09-22 20:35:39
209,ilhabela,-23.7781,-45.3581,73.08,90,56,5.79,BR,2023-09-22 20:41:19
210,rio grande,-32.035,-52.0986,60.94,95,100,8.99,BR,2023-09-22 20:41:19
211,kawalu,-7.3817,108.2082,84.04,49,87,6.42,ID,2023-09-22 20:38:10
212,port moresby,-9.4431,147.1797,85.42,66,40,23.02,PG,2023-09-22 20:38:40
213,faya-largeau,17.9257,19.1043,84.99,18,17,13.65,TD,2023-09-22 20:36:19
214,salalah,17.0151,54.0924,80.69,83,100,4.61,OM,2023-09-22 20:34:35
215,kasongo-lunda,-6.4667,16.8167,72.77,92,100,2.19,CD,2023-09-22 20:35:55
216,daru,-9.0763,143.2092,81.43,66,77,11.97,PG,2023-09-22 20:35:39
217,zhenzhou,32.2692,119.1789,70.9,86,100,4.72,CN,2023-09-22 20:41:20
218,cabo san lucas,22.8909,-109.9124,86.58,60,0,17.27,MX,2023-09-22 20:34:50
219,aksu,41.1231,80.2644,54.18,70,100,5.95,CN,2023-09-22 20:41:21
220,rumphi,-11.0186,33.8575,66.18,62,3,7.49,MW,2023-09-22 20:41:21
221,coalinga,36.1397,-120.3602,69.8,49,100,4.07,US,2023-09-22 20:41:21
222,coquimbo,-29.9533,-71.3436,55.13,94,0,5.75,CL,2023-09-22 20:33:16
223,dryden,49.7833,-92.7503,57.49,88,75,9.22,CA,2023-09-22 20:37:37
224,karasburg,-28.0167,18.75,56.84,61,94,6.58,NA,2023-09-22 20:41:22
225,carnarvon,-24.8667,113.6333,70.77,54,4,14.9,AU,2023-09-22 20:34:35
226,yaring,6.8662,101.3689,84.47,69,100,8.12,TH,2023-09-22 20:41:22
227,kuala belait,4.5833,114.1833,82.56,87,100,7.0,BN,2023-09-22 20:41:22
228,victorica,-36.2151,-65.4359,56.53,74,90,9.15,AR,2023-09-22 20:41:22
229,kudahuvadhoo,2.6708,72.8944,82.58,75,83,9.51,MV,2023-09-22 20:41:23
230,kez,57.8979,53.7152,57.47,87,100,3.09,RU,2023-09-22 20:41:23
231,alofi,-19.0595,-169.9187,76.89,50,99,21.85,NU,2023-09-22 20:35:23
232,narimanov,46.6927,47.8498,55.31,50,0,8.57,RU,2023-09-22 20:41:23
233,ipora,-16.4419,-51.1178,84.27,28,87,1.54,BR,2023-09-22 20:41:23
234,sandpoint,48.2766,-116.5533,55.92,76,100,3.44,US,2023-09-22 20:41:23
235,konarka,19.9,86.1167,86.4,77,100,16.46,IN,2023-09-22 20:38:09
236,greymouth,-42.4667,171.2,52.21,71,100,5.68,NZ,2023-09-22 20:35:25
237,luanda,-8.8368,13.2343,73.4,83,75,3.44,AO,2023-09-22 20:35:19
238,lucapa,-8.4192,20.7447,67.78,82,23,0.34,AO,2023-09-22 20:41:24
239,minas de marcona,-15.2119,-75.1103,54.9,85,73,11.01,PE,2023-09-22 20:36:00
240,petropavlovsk-kamchatsky,53.0452,158.6483,59.59,44,40,11.18,RU,2023-09-22 20:34:44
241,carlos chagas,-17.7031,-40.7664,68.02,91,5,3.91,BR,2023-09-22 20:41:25
242,sant'agata di militello,38.0679,14.6327,78.46,54,67,8.61,IT,2023-09-22 20:41:25
243,shashemene,7.2,38.6,58.17,85,93,4.56,ET,2023-09-22 20:41:25
244,namtsy,62.7161,129.6658,40.06,95,100,5.59,RU,2023-09-22 20:34:41
245,imuris,30.7833,-110.8667,74.34,31,5,2.71,MX,2023-09-22 20:36:32
246,chivhu,-19.0211,30.8922,55.94,43,0,5.53,ZW,2023-09-22 20:41:26
247,mitsamiouli,-11.3847,43.2844,77.29,78,20,5.75,KM,2023-09-22 20:41:26
248,udachny,66.4167,112.4,48.45,81,100,5.14,RU,2023-09-22 20:34:41
249,san ignacio de velasco,-16.3667,-60.95,81.3,36,25,2.59,BO,2023-09-22 20:41:26
250,thief river falls,48.1191,-96.1812,66.13,88,75,13.8,US,2023-09-22 20:41:26
251,tolanaro,-25.0319,46.9987,69.87,83,0,18.41,MG,2023-09-22 20:35:27
252,arteche,12.2645,125.4048,76.96,94,100,4.05,PH,2023-09-22 20:36:39
253,palmer,42.1584,-72.3287,52.52,79,75,0.0,US,2023-09-22 20:35:17
254,vega de alatorre,20.0333,-96.6333,81.23,79,3,6.78,MX,2023-09-22 20:41:27
255,meulaboh,4.1363,96.1285,80.42,82,92,2.93,ID,2023-09-22 20:41:27
256,la ligua,-32.4524,-71.2311,53.33,89,100,0.43,CL,2023-09-22 20:41:27
257,iaciara,-14.0958,-46.6317,75.58,26,55,3.76,BR,2023-09-22 20:39:29
258,sarmiento,-45.5882,-69.07,43.79,52,16,8.08,AR,2023-09-22 20:41:28
259,gadzhiyevo,69.2551,33.3362,55.0,92,97,19.35,RU,2023-09-22 20:35:20
260,uturoa,-16.7333,-151.4333,76.23,87,100,18.84,PF,2023-09-22 20:34:42
261,callao,-12.0667,-77.15,66.49,77,20,13.8,PE,2023-09-22 20:36:30
262,lemvig,56.5486,8.3102,57.15,88,92,7.31,DK,2023-09-22 20:41:28
263,haiku-pauwela,20.9219,-156.3051,78.19,68,20,23.02,US,2023-09-22 20:33:24
264,hermosillo,29.0667,-110.9667,91.81,32,0,7.0,MX,2023-09-22 20:41:29
265,keflavik,64.0049,-22.5624,43.23,100,75,4.61,IS,2023-09-22 20:35:17
266,lazaro cardenas,17.9583,-102.2,81.36,86,47,4.59,MX,2023-09-22 20:34:52
267,tsumeb,-19.2333,17.7167,72.54,31,82,5.03,NA,2023-09-22 20:41:29
268,badger,64.8,-147.5333,42.55,72,40,0.0,US,2023-09-22 20:34:56
269,tazovsky,67.4667,78.7,34.84,75,61,23.0,RU,2023-09-22 20:35:38
270,murzuq,25.9155,13.9184,74.55,19,0,9.26,LY,2023-09-22 20:41:30
271,selfoss,63.9331,-20.9971,41.04,95,100,8.86,IS,2023-09-22 20:41:30
272,kandava,57.0409,22.7747,59.16,92,100,4.85,LV,2023-09-22 20:41:30
273,pirallahi,40.4723,50.333,66.34,71,1,11.36,AZ,2023-09-22 20:41:30
274,saint-pierre,-21.3393,55.4781,72.99,56,0,8.05,RE,2023-09-22 20:36:09
275,mil'kovo,55.6078,37.7956,52.56,57,3,7.23,RU,2023-09-22 20:41:31
276,anadyr,64.75,177.4833,42.01,81,40,13.42,RU,2023-09-22 20:35:40
277,lome,6.1375,1.2123,71.76,94,20,2.3,TG,2023-09-22 20:41:31
278,moose jaw,50.4001,-105.5344,61.05,67,73,13.8,CA,2023-09-22 20:40:35
279,kongwa,-6.2,36.4167,62.08,86,5,3.38,TZ,2023-09-22 20:41:31
280,bardai,11.65,7.2333,72.46,88,100,5.75,NG,2023-09-22 20:38:11
281,mili,6.0815,171.735,79.07,89,100,16.22,MH,2023-09-22 20:35:45
282,nabire,-3.3667,135.4833,85.68,63,74,4.97,ID,2023-09-22 20:41:32
283,tarko-sale,64.9225,77.785,36.0,96,100,25.01,RU,2023-09-22 20:41:32
284,balarampur,23.1167,86.2167,81.01,76,92,10.29,IN,2023-09-22 20:41:32
285,touros,-5.1989,-35.4608,76.03,85,23,12.19,BR,2023-09-22 20:32:30
286,kailua-kona,19.6406,-155.9956,81.95,74,40,11.5,US,2023-09-22 20:35:06
287,parsabad,39.6482,47.9174,62.92,94,0,0.0,IR,2023-09-22 20:41:33
288,ma'rib,15.4591,45.3253,82.62,24,56,6.4,YE,2023-09-22 20:41:33
289,cabedelo,-6.9811,-34.8339,75.87,85,35,11.88,BR,2023-09-22 20:35:23
290,retreat,38.8245,-85.8533,64.33,52,7,7.49,US,2023-09-22 20:41:33
291,cianorte,-23.6633,-52.605,74.75,67,72,12.75,BR,2023-09-22 20:41:34
292,nelson bay,-32.7167,152.15,66.13,56,19,4.0,AU,2023-09-22 20:37:56
293,mamers,48.3333,0.25,47.26,93,4,4.63,FR,2023-09-22 20:41:34
294,taungdwingyi,20.0167,95.55,87.44,70,92,2.86,MM,2023-09-22 20:41:34
295,krasnyy chikoy,50.3643,108.7512,60.53,49,100,5.99,RU,2023-09-22 20:41:34
296,puerto leguizamo,-0.1934,-74.7819,74.52,82,22,0.94,CO,2023-09-22 20:41:34
297,ourem,39.6417,-8.5919,55.9,94,79,4.18,PT,2023-09-22 20:41:35
298,madang,-5.2246,145.7966,84.79,73,97,8.75,PG,2023-09-22 20:36:57
299,pecos,31.4229,-103.4932,88.59,30,0,0.0,US,2023-09-22 20:38:26
300,chongwe,-15.3292,28.682,65.3,44,33,3.91,ZM,2023-09-22 20:41:35
301,westport,41.1415,-73.3579,60.01,74,0,17.27,US,2023-09-22 20:36:25
302,kapa'a,22.0752,-159.319,79.38,71,75,17.27,US,2023-09-22 20:36:15
303,machico,32.7,-16.7667,72.61,85,40,6.91,PT,2023-09-22 20:41:36
304,carinhanha,-14.3047,-43.765,72.77,40,51,5.48,BR,2023-09-22 20:41:36
305,arkhangel'sk,64.5401,40.5433,55.71,95,9,9.31,RU,2023-09-22 20:35:24
306,shemysheyka,52.892,45.3928,59.29,50,4,3.62,RU,2023-09-22 20:41:36
307,el granada,37.5027,-122.4694,58.55,81,20,12.66,US,2023-09-22 20:30:37
308,fuglafjordur,62.244,-6.814,45.07,74,100,20.78,FO,2023-09-22 20:41:36
309,goondiwindi,-28.55,150.3167,78.3,19,0,6.29,AU,2023-09-22 20:41:37
310,bria,6.5423,21.9863,66.79,98,100,2.51,CF,2023-09-22 20:41:37
311,shache,38.4167,77.2406,67.48,16,0,18.5,CN,2023-09-22 20:41:37
312,mount pearl,47.5166,-52.7813,39.97,84,0,9.22,CA,2023-09-22 20:34:40
313,kuala tungkal,-0.8167,103.4667,88.23,56,70,6.22,ID,2023-09-22 20:38:45
314,usinsk,65.9939,57.5281,42.39,83,100,18.52,RU,2023-09-22 20:35:26
315,kiama,-34.6833,150.8667,67.78,57,23,8.9,AU,2023-09-22 20:41:38
316,meadow lakes,61.6247,-149.6011,48.34,78,100,0.0,US,2023-09-22 20:41:38
317,jackson,42.4165,-122.8345,61.56,50,1,1.01,US,2023-09-22 20:38:50
318,poteau,35.0537,-94.6236,71.08,91,96,4.43,US,2023-09-22 20:41:38
319,caleta de carquin,-11.0925,-77.6267,65.19,85,21,9.95,PE,2023-09-22 20:41:39
320,borsa,47.6553,24.6633,58.19,85,31,3.78,RO,2023-09-22 20:41:39
321,sinop,41.7711,34.8709,60.51,70,2,2.28,TR,2023-09-22 20:34:58
322,moyynkum,44.2914,72.9469,65.43,44,1,5.19,KZ,2023-09-22 20:41:39
323,joshimath,30.5667,79.5667,72.27,63,10,5.12,IN,2023-09-22 20:35:08
324,morehead city,34.7229,-76.726,73.11,90,100,11.5,US,2023-09-22 20:37:35
325,inari,68.906,27.0288,61.0,94,100,12.97,FI,2023-09-22 20:39:03
326,dunda,-8.1167,34.25,63.12,72,7,2.33,TZ,2023-09-22 20:41:40
327,wulingyuan,29.3494,110.5441,66.67,79,100,3.87,CN,2023-09-22 20:41:40
328,guaruja,-23.9931,-46.2564,71.73,90,85,1.61,BR,2023-09-22 20:41:40
329,bedford,52.1346,-0.4663,47.95,93,67,10.18,GB,2023-09-22 20:41:41
330,mount isa,-20.7333,139.5,92.97,10,0,6.91,AU,2023-09-22 20:34:45
331,port shepstone,-30.7414,30.455,64.74,85,70,3.06,ZA,2023-09-22 20:41:41
332,canubing no 2,13.35,121.1333,83.08,73,94,0.87,PH,2023-09-22 20:41:41
333,ciudad tula,23.0,-99.7167,67.51,75,7,3.62,MX,2023-09-22 20:41:41
334,dzhalagash,45.0833,64.6667,67.66,39,0,9.82,KZ,2023-09-22 20:41:42
335,smithers,54.7804,-127.1743,59.32,58,75,5.75,CA,2023-09-22 20:36:33
336,petauke,-14.2426,31.3253,70.36,47,28,7.25,ZM,2023-09-22 20:38:32
337,camacupa,-12.0167,17.4833,66.72,61,100,1.88,AO,2023-09-22 20:41:43
338,vernon,50.2581,-119.2691,62.82,57,45,1.14,CA,2023-09-22 20:39:56
339,genhe,50.7833,121.5167,63.57,36,82,8.41,CN,2023-09-22 20:41:43
340,nar'yan-mar,67.6713,53.087,51.55,97,100,14.99,RU,2023-09-22 20:36:31
341,khairpur tamewah,29.5811,72.2364,94.95,42,6,14.36,PK,2023-09-22 20:41:43
342,ratnagiri,16.9833,73.3,81.18,84,100,6.11,IN,2023-09-22 20:41:44
343,solnechnyy,50.7214,136.6319,61.52,38,60,9.08,RU,2023-09-22 20:41:44
344,gaiman,-43.2897,-65.4929,47.39,78,94,13.09,AR,2023-09-22 20:41:44
345,grand falls-windsor,48.9332,-55.6649,37.51,89,9,7.38,CA,2023-09-22 20:34:47
346,aswan,24.0934,32.907,79.9,34,0,0.0,EG,2023-09-22 20:41:44
347,puerto aysen,-45.4,-72.7,36.88,99,80,3.31,CL,2023-09-22 20:31:26
348,mawlaik,23.6333,94.4167,86.16,71,91,1.54,MM,2023-09-22 20:41:45
349,pemba,-12.974,40.5178,74.1,100,20,3.44,MZ,2023-09-22 20:41:45
350,qianzhou,28.3167,109.7167,69.69,79,100,2.8,CN,2023-09-22 20:41:45
351,chonchi,-42.6128,-73.8092,40.12,86,96,2.24,CL,2023-09-22 20:30:59
352,yaren,-0.5472,166.916,83.48,71,67,3.4,NR,2023-09-22 20:34:51
353,darnah,32.767,22.6367,76.37,63,0,6.44,LY,2023-09-22 20:41:46
354,port mathurin,-19.6833,63.4167,73.58,68,2,21.36,MU,2023-09-22 20:34:33
355,spring creek,40.7266,-115.5859,44.85,35,0,2.06,US,2023-09-22 20:41:27
356,thunder bay,48.4001,-89.3168,62.51,94,100,4.61,CA,2023-09-22 20:38:16
357,mentekab,3.4854,102.3484,89.94,75,93,1.99,MY,2023-09-22 20:41:46
358,kovdor,67.5662,30.4758,57.09,91,100,10.0,RU,2023-09-22 20:41:46
359,kill devil hills,36.0307,-75.676,72.0,98,100,19.57,US,2023-09-22 20:31:50
360,zhuzhou,27.8333,113.15,73.53,78,99,4.94,CN,2023-09-22 20:41:47
361,sao jose da coroa grande,-8.8978,-35.1478,75.06,87,29,8.48,BR,2023-09-22 20:41:47
362,fuerte olimpo,-21.0415,-57.8738,83.32,30,42,5.08,PY,2023-09-22 20:37:44
363,puerto deseado,-47.7503,-65.8938,41.85,73,40,11.39,AR,2023-09-22 20:39:19
364,motygino,58.1831,94.7592,60.13,55,100,11.25,RU,2023-09-22 20:41:47
365,corfu,39.62,19.9197,71.38,88,0,3.44,GR,2023-09-22 20:38:30
366,flying fish cove,-10.4217,105.6791,80.28,69,100,14.97,CX,2023-09-22 20:38:38
367,ballina,-28.8667,153.5667,68.77,57,91,13.33,AU,2023-09-22 20:41:48
368,nikolayevsk-on-amure,53.1406,140.73,56.21,45,74,12.26,RU,2023-09-22 20:36:12
369,owando,-0.4819,15.8999,69.66,99,98,2.57,CG,2023-09-22 20:41:48
370,al ghayzah,16.2079,52.176,81.0,78,96,5.32,YE,2023-09-22 20:41:48
371,nuku'alofa,-21.1333,-175.2,75.54,64,75,23.02,TO,2023-09-22 20:34:42
372,bovalino,38.149,16.174,82.29,77,10,5.14,IT,2023-09-22 20:41:49
373,tofol,5.3248,163.0078,89.38,74,75,3.44,FM,2023-09-22 20:34:50
374,enewetak,11.3474,162.3373,84.13,78,99,17.98,MH,2023-09-22 20:35:50
375,ad dabbah,18.05,30.95,85.06,20,16,10.69,SD,2023-09-22 20:41:49
376,mbandaka,0.0487,18.2603,70.12,92,100,3.62,CD,2023-09-22 20:39:02
377,hami,42.8,93.45,71.65,23,14,1.05,CN,2023-09-22 20:41:50
378,acarau,-2.8856,-40.12,77.99,83,5,15.97,BR,2023-09-22 20:36:23
379,dire,12.2833,-10.9667,73.29,94,100,2.93,ML,2023-09-22 20:41:50
380,basco,20.4487,121.9702,84.4,79,47,16.64,PH,2023-09-22 20:36:34
381,san martin de valdeiglesias,40.3623,-4.3439,54.37,67,62,5.03,ES,2023-09-22 20:41:50
382,marsh harbour,26.5412,-77.0636,81.03,67,20,5.23,BS,2023-09-22 20:41:50
383,kapit,2.0167,112.9333,79.41,84,100,0.81,MY,2023-09-22 20:41:51
384,mirny,62.5353,113.9611,53.24,71,100,11.01,RU,2023-09-22 20:41:51
385,puerto lempira,15.2667,-83.7667,80.82,82,1,5.26,HN,2023-09-22 20:41:51
386,miquelon,47.0975,-56.3814,50.0,62,0,14.94,PM,2023-09-22 20:41:51
387,itoman,26.1247,127.6694,86.76,76,75,10.36,JP,2023-09-22 20:36:07
388,fauske,67.2588,15.3918,48.36,97,100,3.83,NO,2023-09-22 20:41:51
389,dul'durga,50.6761,113.5931,67.71,29,100,10.07,RU,2023-09-22 20:35:18
390,baraboo,43.4711,-89.7443,66.83,90,100,0.0,US,2023-09-22 20:41:52
391,vorkuta,67.5,64.0,36.7,87,99,7.67,RU,2023-09-22 20:35:13
392,malemort-sur-correze,45.1701,1.5619,48.38,99,28,2.48,FR,2023-09-22 20:41:52
393,mugumu,-1.85,34.7,62.62,74,79,4.43,TZ,2023-09-22 20:41:52
394,xunchang,28.4543,104.715,66.49,95,100,1.7,CN,2023-09-22 20:38:53
395,bodaybo,57.8506,114.1933,62.69,51,78,3.58,RU,2023-09-22 20:41:53
396,okha,53.5739,142.9478,51.66,60,100,16.06,RU,2023-09-22 20:41:53
397,akjoujt,19.6969,-14.4164,90.7,22,7,15.28,MR,2023-09-22 20:41:53
398,loule,37.1377,-8.0197,61.84,68,0,10.36,PT,2023-09-22 20:41:53
399,mancio lima,-7.6142,-72.8958,77.07,94,0,0.0,BR,2023-09-22 20:36:38
400,pecan plantation,32.3604,-97.6756,85.32,57,0,8.05,US,2023-09-22 20:41:54
401,ponnani,10.767,75.9252,76.32,77,80,2.84,IN,2023-09-22 20:41:54
402,viru,-8.4167,-78.75,68.83,73,7,3.06,PE,2023-09-22 20:41:54
403,la tebaida,4.4527,-75.7875,62.74,100,75,0.0,CO,2023-09-22 20:41:54
404,priozersk,61.0393,30.1291,59.02,91,45,10.87,RU,2023-09-22 20:41:54
405,labrador city,52.9463,-66.9114,48.11,81,100,6.91,CA,2023-09-22 20:36:33
406,veraval,20.9,70.3667,82.76,81,100,10.42,IN,2023-09-22 20:41:55
407,udalguri,26.7667,92.1333,75.29,96,100,2.04,IN,2023-09-22 20:41:55
408,ishigaki,24.3448,124.1572,87.93,79,40,10.36,JP,2023-09-22 20:35:56
409,kachug,53.9606,105.8817,62.73,41,77,4.25,RU,2023-09-22 20:41:55
410,mbaiki,3.8678,17.9892,68.86,99,99,1.7,CF,2023-09-22 20:41:55
411,fort bragg,35.139,-79.006,62.29,94,100,19.57,US,2023-09-22 20:35:15
412,taco pozo,-25.6167,-63.2833,81.28,57,10,7.76,AR,2023-09-22 20:41:56
413,margate,51.3813,1.3862,52.21,84,9,3.0,GB,2023-09-22 20:37:59
414,kavaratti,10.5669,72.642,82.11,75,100,5.28,IN,2023-09-22 20:35:55
415,karlskrona,56.1616,15.5866,52.25,88,96,4.92,SE,2023-09-22 20:41:56
416,carletonville,-26.3609,27.3977,56.8,42,40,3.62,ZA,2023-09-22 20:41:56
417,vilyuchinsk,52.9306,158.4028,60.26,64,31,5.64,RU,2023-09-22 20:35:01
418,san sebastian de la gomera,28.0916,-17.1133,73.76,73,0,5.75,ES,2023-09-22 20:41:57
419,kourou,5.1552,-52.6478,78.85,87,34,7.78,GF,2023-09-22 20:37:46
420,porto empedocle,37.2934,13.5264,75.31,70,78,12.35,IT,2023-09-22 20:41:57
421,strzelce krajenskie,52.8773,15.5298,51.37,94,100,6.67,PL,2023-09-22 20:41:57
422,guerrero negro,27.9769,-114.0611,69.04,80,27,13.98,MX,2023-09-22 20:38:31
423,sloviansk,48.8667,37.6167,58.98,42,1,7.11,UA,2023-09-22 20:41:57
424,yuzhno-kurilsk,44.0306,145.8556,63.34,66,12,10.18,RU,2023-09-22 20:35:49
425,katima mulilo,-17.5,24.2667,66.7,30,1,6.53,NA,2023-09-22 20:41:58
426,ulsteinvik,62.3432,5.8487,57.09,67,99,14.0,NO,2023-09-22 20:34:57
427,hukumati azrah,34.1736,69.6457,62.01,31,0,0.6,AF,2023-09-22 20:41:58
428,ancud,-41.8697,-73.8203,43.43,86,100,3.89,CL,2023-09-22 20:33:42
429,bubaque,11.2833,-15.8333,79.95,73,100,5.39,GW,2023-09-22 20:41:59
430,huilong,31.8111,121.655,76.93,72,100,7.63,CN,2023-09-22 20:41:59
431,ovruch,51.3246,28.8035,60.69,67,77,8.77,UA,2023-09-22 20:41:59
432,angaur state,6.906,134.13,83.77,78,100,15.97,PW,2023-09-22 20:37:58
433,thinadhoo,0.5333,72.9333,82.65,76,45,12.53,MV,2023-09-22 20:42:00
434,birao,10.2849,22.7882,67.93,94,100,1.95,CF,2023-09-22 20:42:00
435,nadym,65.5333,72.5167,38.37,69,100,19.1,RU,2023-09-22 20:42:00
436,colonia,50.9333,6.95,52.23,84,40,4.61,DE,2023-09-22 20:35:13
437,antonio enes,-16.2325,39.9086,76.86,79,1,7.07,MZ,2023-09-22 20:42:00
438,prince rupert,54.3161,-130.3201,50.77,88,100,6.91,CA,2023-09-22 20:35:40
439,pont rouge,48.8833,-72.0825,60.91,78,97,2.68,CA,2023-09-22 20:42:01
440,abu dhabi,24.4667,54.3667,90.79,71,96,5.75,AE,2023-09-22 20:28:13
441,coronel dorrego,-38.7187,-61.2873,46.87,84,100,9.73,AR,2023-09-22 20:42:01
442,lyudinovo,53.8664,34.4478,58.01,57,100,7.34,RU,2023-09-22 20:42:01
443,lerwick,60.1545,-1.1494,48.2,77,82,24.36,GB,2023-09-22 20:35:45
444,great falls,47.5002,-111.3008,54.57,97,100,4.61,US,2023-09-22 20:38:00
445,boende,-0.2167,20.8667,70.2,99,85,2.73,CD,2023-09-22 20:42:02
446,la passe,45.5549,-0.8967,53.02,83,23,8.23,FR,2023-09-22 20:35:36
447,padangsidempuan,1.3667,99.2667,84.85,59,67,4.5,ID,2023-09-22 20:39:26
448,pamandzi,-12.7967,45.2794,76.78,88,0,10.36,YT,2023-09-22 20:42:02
449,gdov,58.7406,27.8122,61.72,64,55,18.19,RU,2023-09-22 20:42:03
450,biga,40.2281,27.2422,66.06,53,0,2.64,TR,2023-09-22 20:42:03
451,kampli,15.4,76.6167,81.68,67,100,9.15,IN,2023-09-22 20:42:03
452,tidjikja,18.5564,-11.4271,88.92,21,27,17.0,MR,2023-09-22 20:39:13
453,rosarito,32.3333,-117.0333,67.12,77,100,8.86,MX,2023-09-22 20:42:04
454,tralee,52.2704,-9.7026,46.17,82,100,5.41,IE,2023-09-22 20:36:40
455,troitsko-pechorsk,62.7084,56.1964,49.35,87,100,6.29,RU,2023-09-22 20:42:04
456,champerico,14.3,-91.9167,80.56,79,45,7.31,GT,2023-09-22 20:35:46
457,zakamensk,50.3741,103.2863,50.27,91,100,0.58,RU,2023-09-22 20:42:05
458,kavaje,41.1856,19.5569,62.76,47,14,6.6,AL,2023-09-22 20:42:05
459,akureyri,65.6835,-18.0878,33.73,86,100,0.0,IS,2023-09-22 20:34:50
460,kem',64.9555,34.5793,56.43,89,95,13.33,RU,2023-09-22 20:42:06
461,argo,37.6333,22.7333,76.89,45,0,3.22,GR,2023-09-22 20:38:01
462,lucas,41.6501,-83.6666,60.69,86,0,4.61,US,2023-09-22 20:42:06
463,veinticinco de mayo,-35.4323,-60.1727,46.98,93,82,4.0,AR,2023-09-22 20:38:51
464,natal,-5.795,-35.2094,75.42,100,75,16.11,BR,2023-09-22 20:39:06
465,holualoa,19.6228,-155.9522,78.15,74,40,11.5,US,2023-09-22 20:39:00
466,srandakan,-7.9386,110.2506,82.26,62,52,13.11,ID,2023-09-22 20:42:07
467,alexandria,31.2156,29.9553,72.14,63,4,4.72,EG,2023-09-22 20:40:48
468,naujoji akmene,56.3167,22.9,64.22,76,100,5.03,LT,2023-09-22 20:42:07
469,howrah,22.5892,88.3103,84.2,89,100,9.22,IN,2023-09-22 20:32:51
470,leua,48.2156,18.6071,62.55,91,100,2.62,SK,2023-09-22 20:38:49
471,bengkulu,-3.8004,102.2655,80.06,66,86,10.0,ID,2023-09-22 20:42:08
472,lensk,60.7253,114.9278,62.19,57,83,12.95,RU,2023-09-22 20:38:26
473,martuk,50.7475,56.5056,63.95,55,21,5.86,KZ,2023-09-22 20:42:08
474,copala,16.65,-98.9833,80.33,87,79,3.36,MX,2023-09-22 20:42:08
475,darwin,-12.4611,130.8418,91.17,51,20,8.05,AU,2023-09-22 20:37:45
476,hanzhong,33.0728,107.0303,59.45,97,100,2.86,CN,2023-09-22 20:42:09
477,zhongxiang,31.1661,112.5831,66.07,91,100,4.79,CN,2023-09-22 20:42:09
478,new norfolk,-42.7826,147.0587,61.03,51,98,1.74,AU,2023-09-22 20:36:26
479,diego de almagro,-26.3667,-70.05,64.54,22,37,1.74,CL,2023-09-22 20:42:09
480,olavarria,-36.8927,-60.3225,46.17,73,98,8.01,AR,2023-09-22 20:42:09
481,huarmey,-10.0681,-78.1522,65.66,85,4,6.85,PE,2023-09-22 20:42:10
482,masterton,-40.9597,175.6575,53.89,98,100,2.86,NZ,2023-09-22 20:42:10
483,dunedin,-45.8742,170.5036,48.79,78,100,3.0,NZ,2023-09-22 20:36:24
484,tazacorte,28.629,-17.9293,71.15,84,75,9.22,ES,2023-09-22 20:34:55
485,santa elena de uairen,4.6167,-61.1333,67.26,88,82,1.63,VE,2023-09-22 20:42:11
486,patzcuaro,19.5167,-101.6,58.21,93,9,1.7,MX,2023-09-22 20:42:11
487,papao,-17.75,-149.55,76.68,97,100,15.03,PF,2023-09-22 20:42:11
488,coronel suarez,-37.4547,-61.9334,48.02,77,100,6.4,AR,2023-09-22 20:42:11
489,alaghsas,17.0187,8.0168,86.86,15,31,8.68,NE,2023-09-22 20:37:58
490,chibougamau,49.9168,-74.3659,55.02,76,100,5.75,CA,2023-09-22 20:32:19
491,cuajinicuilapa,16.4667,-98.4167,79.95,85,66,0.6,MX,2023-09-22 20:42:12
492,kirakira,-10.4544,161.9205,83.35,72,84,13.53,SB,2023-09-22 20:35:55
493,zaozersk,69.4005,32.4476,55.45,92,100,17.4,RU,2023-09-22 20:35:51
494,melfi,40.9965,15.6514,67.15,59,71,5.3,IT,2023-09-22 20:42:12
495,pahrump,36.2083,-115.9839,72.36,24,100,3.0,US,2023-09-22 20:38:26
496,tarinkot,32.6268,65.8733,73.49,15,0,1.1,AF,2023-09-22 20:42:13
497,prince george,53.9166,-122.753,56.35,49,0,6.91,CA,2023-09-22 20:39:15
498,pemangkat,1.1667,108.9667,84.65,64,100,8.81,ID,2023-09-22 20:36:05
499,antsiranana,-12.2787,49.2917,75.52,78,70,17.18,MG,2023-09-22 20:38:50
500,lamar,33.6668,-95.5836,71.73,92,0,11.5,US,2023-09-22 20:42:13
501,columbia city,41.1573,-85.4883,64.76,73,15,5.01,US,2023-09-22 20:39:06
502,shahrak,34.1074,64.3052,51.01,30,0,4.97,AF,2023-09-22 20:42:14
503,mata-utu,-13.2816,-176.1745,80.38,79,63,26.82,WF,2023-09-22 20:36:17
504,viedma,-40.8135,-62.9967,46.71,73,100,12.06,AR,2023-09-22 20:35:56
505,luderitz,-26.6481,15.1594,59.4,81,100,14.41,NA,2023-09-22 20:34:57
506,palikir - national government center,6.9248,158.1611,83.25,84,100,9.22,FM,2023-09-22 20:35:42
507,punta arenas,-53.15,-70.9167,39.31,81,0,26.46,CL,2023-09-22 20:30:23
508,kavieng,-2.5744,150.7967,83.1,75,65,1.1,PG,2023-09-22 20:36:28
509,ajaccio,42.0,8.9167,55.38,94,20,5.75,FR,2023-09-22 20:35:48
510,shihezi,44.3,86.0333,64.69,44,100,11.14,CN,2023-09-22 20:42:15
511,nurmijarvi,60.4641,24.8073,63.46,84,20,14.97,FI,2023-09-22 20:42:15
512,janeng,-25.4167,25.55,68.54,31,99,9.57,BW,2023-09-22 20:42:15
513,veracruz,19.3333,-96.6667,72.14,92,4,3.53,MX,2023-09-22 20:38:10
514,jilib,0.4883,42.7854,77.81,80,74,8.41,SO,2023-09-22 20:42:16
515,mount vernon,40.9126,-73.8371,61.75,74,100,14.97,US,2023-09-22 20:42:16
516,taltal,-25.4,-70.4833,65.08,60,15,3.74,CL,2023-09-22 20:42:16
517,soroti,1.7146,33.6111,66.9,85,13,1.48,UG,2023-09-22 20:42:16
518,valle de la pascua,9.2155,-66.0073,75.02,83,17,1.39,VE,2023-09-22 20:42:16
519,island harbour,50.724,-1.2758,47.91,92,2,1.01,GB,2023-09-22 20:35:42
520,san pedro pochutla,15.7333,-96.4667,77.38,90,71,4.23,MX,2023-09-22 20:38:10
521,mar del plata,-38.0023,-57.5575,48.16,85,100,4.61,AR,2023-09-22 20:41:42
522,moscow,55.7522,37.6156,53.64,52,5,6.42,RU,2023-09-22 20:38:50
523,thomasville,35.8826,-80.082,62.49,81,100,7.0,US,2023-09-22 20:42:17
524,kota,25.1833,75.8333,84.72,71,72,1.21,IN,2023-09-22 20:42:17
525,cam ranh,11.9214,109.1591,89.56,62,20,1.14,VN,2023-09-22 20:42:17
526,lucerne valley,34.4439,-116.9678,65.5,70,100,4.34,US,2023-09-22 20:42:18
527,tifton,31.4505,-83.5085,63.57,94,0,0.0,US,2023-09-22 20:42:18
528,cooper's town,26.8667,-77.5167,80.87,66,28,6.71,BS,2023-09-22 20:42:18
529,mathba,22.2855,89.9629,86.88,71,98,11.01,BD,2023-09-22 20:42:18
530,tual,-5.6667,132.75,78.6,79,80,12.3,ID,2023-09-22 20:36:30
531,wenchang,30.904,118.4887,66.13,96,100,8.57,CN,2023-09-22 20:35:15
532,parauapebas,-6.0675,-49.9022,76.87,64,64,1.97,BR,2023-09-22 20:42:19
533,besisahar,28.2313,84.3761,74.59,91,99,0.87,NP,2023-09-22 20:42:19
534,calca,-13.3333,-71.95,56.55,74,63,3.2,PE,2023-09-22 20:42:19
535,linghai,41.1653,121.3667,73.2,18,100,10.13,CN,2023-09-22 20:42:19
536,acajutla,13.5928,-89.8275,80.78,82,22,7.0,SV,2023-09-22 20:42:20
537,itaituba,-4.2761,-55.9836,77.2,70,70,2.75,BR,2023-09-22 20:38:30
538,ar ruseris,11.8659,34.3869,75.69,85,87,4.85,SD,2023-09-22 20:42:20
539,likiep,9.8251,169.3107,83.77,78,59,18.21,MH,2023-09-22 20:42:20
540,kudligi,14.9,76.3833,79.07,69,100,9.33,IN,2023-09-22 20:42:20
541,banamba,13.55,-7.45,75.67,85,98,8.3,ML,2023-09-22 20:42:20
542,puerto baquerizo moreno,-0.9,-89.6,74.17,81,80,10.8,EC,2023-09-22 20:35:10
543,la ronge,55.1001,-105.2842,59.25,63,0,3.44,CA,2023-09-22 20:35:05
544,iquique,-20.2208,-70.1431,66.24,81,40,1.79,CL,2023-09-22 20:41:07
545,menongue,-14.6585,17.691,62.78,33,51,3.78,AO,2023-09-22 20:42:21
546,midvagur,62.0511,-7.1939,45.43,76,75,19.57,FO,2023-09-22 20:42:21
547,petrolina,-9.3986,-40.5008,80.65,50,0,9.22,BR,2023-09-22 20:42:22
548,barquisimeto,10.0739,-69.3228,72.19,87,80,4.76,VE,2023-09-22 20:42:22
549,jianshui,23.6363,102.8264,79.99,64,51,5.06,CN,2023-09-22 20:42:22
550,xining,36.6167,101.7667,58.08,58,71,6.69,CN,2023-09-22 20:36:10
551,emerald,-23.5333,148.1667,81.34,36,0,13.15,AU,2023-09-22 20:36:19
552,nadi,-17.8,177.4167,77.0,83,75,8.05,FJ,2023-09-22 20:38:31
553,el bauga,18.262,33.9081,88.52,22,6,8.93,SD,2023-09-22 20:42:23
