City ID,City,Latitude,Longitude,Temperature,Humidity,Cloudiness,Wind Speed,Country,Date/Time
0,lihue,21.9789,-159.3672,77.14,82,100,12.66,US,2023-10-01 23:10:20
1,olonkinbyen,70.9221,-8.7187,32.43,92,100,18.34,SJ,2023-10-01 23:09:31
2,udachny,66.4167,112.4,30.45,92,100,17.29,RU,2023-10-01 23:12:44
3,hawaiian paradise park,19.5933,-154.9731,74.62,88,100,1.99,US,2023-10-01 23:09:45
4,tiksi,71.6872,128.8694,24.01,77,11,2.66,RU,2023-10-01 23:09:28
5,tsiombe,-25.3,45.4833,68.83,80,79,12.71,MG,2023-10-01 23:10:12
6,grand falls-windsor,48.9332,-55.6649,53.51,91,52,2.28,CA,2023-10-01 23:10:16
7,isafjordur,66.0755,-23.124,40.08,98,100,26.4,IS,2023-10-01 23:09:41
8,bilibino,68.0546,166.4372,29.95,98,100,2.95,RU,2023-10-01 23:09:35
9,minas de marcona,-15.2119,-75.1103,55.98,92,64,12.24,PE,2023-10-01 23:09:38
10,vorotynets,56.0603,45.8633,56.05,78,100,6.11,RU,2023-10-01 23:15:10
11,port-aux-francais,-49.35,70.2167,33.91,79,89,45.1,TF,2023-10-01 23:12:14
12,yemetsk,63.4721,41.7941,45.79,88,100,8.88,RU,2023-10-01 23:10:35
13,puerto ayora,-0.7393,-90.3518,71.55,100,96,1.99,EC,2023-10-01 23:09:37
14,amos,48.5669,-78.1162,52.81,81,36,5.26,CA,2023-10-01 23:06:00
15,rio hato,8.3833,-80.1667,72.46,90,100,2.71,PA,2023-10-01 23:15:11
16,tura,25.5198,90.2201,82.94,84,60,3.56,IN,2023-10-01 23:10:19
17,rotorua,-38.1387,176.2452,57.52,91,39,8.68,NZ,2023-10-01 23:15:11
18,coquimbo,-29.9533,-71.3436,54.84,79,92,5.88,CL,2023-10-01 23:10:26
19,blackmans bay,-43.0167,147.3167,69.46,31,43,11.39,AU,2023-10-01 23:09:44
20,santana,-0.0583,-51.1817,82.58,78,40,8.05,BR,2023-10-01 23:13:09
21,weno,7.4515,151.8468,87.75,74,40,4.61,FM,2023-10-01 23:12:28
22,visby,57.6409,18.296,50.22,100,20,6.91,SE,2023-10-01 23:15:12
23,wewak,-3.5534,143.6268,84.18,73,28,6.35,PG,2023-10-01 23:12:45
24,beaufort,5.3473,115.7455,89.1,56,95,6.15,MY,2023-10-01 23:10:58
25,wailua homesteads,22.0669,-159.378,76.05,86,100,12.66,US,2023-10-01 23:09:54
26,san antonio de pale,-1.4014,5.6325,77.2,84,93,10.51,GQ,2023-10-01 23:10:17
27,akureyri,65.6835,-18.0878,42.73,81,100,13.8,IS,2023-10-01 23:10:18
28,sinabang,2.4803,96.3801,81.32,79,100,11.25,ID,2023-10-01 23:10:43
29,waitangi,-43.9535,-176.5597,55.81,89,73,10.0,NZ,2023-10-01 23:12:11
30,lebu,-37.6167,-73.65,46.38,84,91,2.68,CL,2023-10-01 23:09:58
31,nova sintra,14.8667,-24.7167,74.28,80,91,11.79,CV,2023-10-01 23:09:31
32,murashi,59.3999,48.9615,50.04,85,78,10.31,RU,2023-10-01 23:10:25
33,nefteyugansk,61.0998,72.6035,49.96,69,28,20.0,RU,2023-10-01 23:12:20
34,atafu village,-8.5421,-172.5159,83.7,72,23,9.06,TK,2023-10-01 23:10:00
35,nova vicosa,-17.8919,-39.3719,71.91,80,99,8.28,BR,2023-10-01 23:10:24
36,berberati,4.2612,15.7922,71.49,95,86,1.14,CF,2023-10-01 23:15:14
37,bouna,9.2667,-3.0,71.47,97,60,5.73,CI,2023-10-01 23:15:14
38,newman,37.3138,-121.0208,59.63,73,22,1.99,US,2023-10-01 23:12:36
39,garachico,28.7781,-17.7646,69.91,83,75,10.36,ES,2023-10-01 23:15:15
40,nizhniy odes,63.6445,54.856,49.84,85,75,11.61,RU,2023-10-01 23:13:29
41,avarua,-21.2078,-159.775,71.65,88,75,13.8,CK,2023-10-01 23:09:44
42,adamstown,-25.066,-130.1015,68.79,79,37,23.91,PN,2023-10-01 23:09:26
43,hermanus,-34.4187,19.2345,60.93,60,0,9.04,ZA,2023-10-01 23:09:51
44,yellowknife,62.456,-114.3525,47.41,100,99,11.01,CA,2023-10-01 23:09:28
45,borzya,50.3833,116.5167,60.87,32,100,9.78,RU,2023-10-01 23:13:09
46,ardabil,38.2498,48.2933,58.55,77,20,6.91,IR,2023-10-01 23:15:16
47,retreat,38.8245,-85.8533,57.4,98,0,4.03,US,2023-10-01 23:15:16
48,ilulissat,69.2167,-51.1,26.62,63,1,5.75,GL,2023-10-01 23:12:19
49,aasiaat,68.7098,-52.8699,16.86,84,31,10.09,GL,2023-10-01 23:11:08
50,adrar,20.5022,-10.0711,81.09,20,6,5.32,MR,2023-10-01 23:10:49
51,broken hill,-31.95,141.4333,94.86,14,60,31.16,AU,2023-10-01 23:12:24
52,nizhnyaya tura,58.6293,59.8118,56.91,63,65,11.61,RU,2023-10-01 23:15:17
53,sambiase,38.9654,16.2847,59.72,88,20,5.75,IT,2023-10-01 23:15:18
54,miringa,10.7312,12.1463,73.81,86,100,0.58,NG,2023-10-01 23:15:18
55,qaqortoq,60.7167,-46.0333,35.53,76,100,1.14,GL,2023-10-01 23:10:08
56,thompson,55.7435,-97.8558,35.76,100,100,8.05,CA,2023-10-01 23:10:08
57,ribeira grande,38.5167,-28.7,65.77,73,90,7.0,PT,2023-10-01 23:09:33
58,invercargill,-46.4,168.35,43.02,87,100,13.0,NZ,2023-10-01 23:09:44
59,jamestown,42.097,-79.2353,60.96,96,100,0.0,US,2023-10-01 23:09:50
60,orapa,-21.2833,25.3667,67.05,55,0,22.84,BW,2023-10-01 23:15:19
61,bikenibeu village,1.3673,173.1241,84.72,68,5,6.8,KI,2023-10-01 23:10:12
62,viedma,-40.8135,-62.9967,61.16,42,100,17.65,AR,2023-10-01 23:15:19
63,antsiranana,-12.2787,49.2917,82.98,58,88,11.05,MG,2023-10-01 23:12:12
64,puerto natales,-51.7236,-72.4875,31.37,90,91,5.37,CL,2023-10-01 23:09:45
65,talnakh,69.4865,88.3972,18.21,91,79,9.71,RU,2023-10-01 23:09:35
66,annau,37.8876,58.516,72.9,23,20,6.91,TM,2023-10-01 23:15:20
67,bereeda,11.8704,51.0579,84.72,63,53,3.31,SO,2023-10-01 23:15:20
68,nar'yan-mar,67.6713,53.087,51.12,96,93,8.01,RU,2023-10-01 23:12:45
69,college,64.8569,-147.8028,36.05,91,100,5.75,US,2023-10-01 23:08:30
70,longyearbyen,78.2186,15.6401,24.64,68,40,17.27,SJ,2023-10-01 23:10:24
71,copala,16.65,-98.9833,79.61,88,96,2.62,MX,2023-10-01 23:09:49
72,grytviken,-54.2811,-36.5092,37.18,93,52,12.26,GS,2023-10-01 23:09:31
73,merizo village,13.2658,144.6691,84.87,89,9,13.42,GU,2023-10-01 23:13:01
74,jatoba,-9.1831,-38.2689,65.1,82,3,5.93,BR,2023-10-01 23:15:21
75,mahebourg,-20.4081,57.7,79.09,69,20,13.8,MU,2023-10-01 23:14:51
76,bethel,41.3712,-73.414,60.15,85,0,3.44,US,2023-10-01 23:12:15
77,bredasdorp,-34.5322,20.0403,58.08,62,2,5.17,ZA,2023-10-01 23:12:25
78,ishigaki,24.3448,124.1572,86.13,70,40,21.85,JP,2023-10-01 23:15:22
79,tolanaro,-25.0319,46.9987,75.94,69,1,14.61,MG,2023-10-01 23:10:28
80,axim,4.8699,-2.2405,76.35,91,29,5.75,GH,2023-10-01 23:10:53
81,constantia,44.1833,28.65,61.48,53,52,20.13,RO,2023-10-01 23:09:49
82,nogliki,51.8333,143.1667,51.35,96,100,25.01,RU,2023-10-01 23:09:52
83,amahai,-3.3333,128.9167,80.33,81,94,4.23,ID,2023-10-01 23:10:29
84,cruzeiro do sul,-29.5128,-51.9853,48.61,92,0,0.58,BR,2023-10-01 23:15:23
85,nemuro,43.3236,145.575,63.55,68,1,18.7,JP,2023-10-01 23:10:25
86,bengkulu,-3.8004,102.2655,81.79,64,94,12.66,ID,2023-10-01 23:10:03
87,vilyuchinsk,52.9306,158.4028,47.93,90,100,22.03,RU,2023-10-01 23:09:50
88,chonchi,-42.6128,-73.8092,40.12,98,64,1.63,CL,2023-10-01 23:09:41
89,nyurba,63.2842,118.3319,36.03,94,100,11.01,RU,2023-10-01 23:15:23
90,badger,64.8,-147.5333,36.09,91,75,5.75,US,2023-10-01 23:09:28
91,daru,-9.0763,143.2092,79.92,80,82,15.23,PG,2023-10-01 23:13:36
92,lerwick,60.1545,-1.1494,53.6,82,63,18.63,GB,2023-10-01 23:15:24
93,bardai,11.65,7.2333,69.01,95,96,7.47,NG,2023-10-01 23:09:49
94,ma'rib,15.4591,45.3253,83.62,16,1,2.28,YE,2023-10-01 23:10:34
95,gao,16.6362,1.637,86.54,36,57,9.69,ML,2023-10-01 23:15:24
96,margaret river,-33.95,115.0667,56.97,47,83,21.45,AU,2023-10-01 23:09:55
97,afaahiti,-17.75,-149.2833,78.67,86,15,15.9,PF,2023-10-01 23:10:55
98,kribi,2.95,9.9167,77.58,89,100,3.94,CM,2023-10-01 23:10:28
99,ushuaia,-54.8,-68.3,28.49,90,39,5.55,AR,2023-10-01 23:09:29
100,kulhudhuffushi,6.6221,73.07,81.12,80,96,14.76,MV,2023-10-01 23:15:25
101,kodiak,57.79,-152.4072,42.31,87,20,5.75,US,2023-10-01 23:09:41
102,hailey,43.5196,-114.3153,44.49,77,100,5.75,US,2023-10-01 23:15:25
103,lompoc,34.6391,-120.4579,54.63,87,0,8.99,US,2023-10-01 23:10:50
104,hirara,24.8,125.2833,84.47,74,40,26.46,JP,2023-10-01 23:15:26
105,albany,42.6001,-73.9662,58.3,92,7,3.0,US,2023-10-01 23:12:29
106,kapoeta,4.7717,33.5903,88.66,37,79,18.34,SS,2023-10-01 23:15:26
107,tarnogskiy gorodok,60.4997,43.5761,51.84,86,99,10.18,RU,2023-10-01 23:15:27
108,vanino,49.0869,140.2543,49.93,85,100,15.68,RU,2023-10-01 23:15:27
109,balabac,7.9868,117.0645,84.51,74,100,16.67,PH,2023-10-01 23:15:27
110,kerikeri,-35.2268,173.9474,62.91,74,26,5.01,NZ,2023-10-01 23:12:42
111,ocher,57.8904,54.7202,58.15,62,94,12.12,RU,2023-10-01 23:15:27
112,chul'man,56.8479,124.9104,46.35,54,58,5.01,RU,2023-10-01 23:15:28
113,st. john's,47.5649,-52.7093,52.7,92,75,13.8,CA,2023-10-01 23:05:27
114,shimanovsk,52.0,127.7,51.75,56,54,4.99,RU,2023-10-01 23:15:28
115,mount gambier,-37.8333,140.7667,78.84,36,0,10.13,AU,2023-10-01 23:11:03
116,vadso,70.0744,29.7487,33.96,80,20,11.5,NO,2023-10-01 23:09:45
117,tamandare,-8.7597,-35.1047,72.39,79,16,1.57,BR,2023-10-01 23:13:39
118,namibe,-15.1961,12.1522,64.29,82,14,2.01,AO,2023-10-01 23:09:46
119,santo antonio,-6.3106,-35.4789,67.32,93,5,5.88,BR,2023-10-01 23:15:29
120,whitehorse,60.7161,-135.0538,42.13,82,99,17.0,CA,2023-10-01 23:09:46
121,greatwood,29.5541,-95.6758,75.11,81,0,4.61,US,2023-10-01 23:15:29
122,edinburgh of the seven seas,-37.0676,-12.3116,49.87,66,98,24.2,SH,2023-10-01 23:09:31
123,shahr-e babak,30.1165,55.1186,74.39,18,0,5.88,IR,2023-10-01 23:15:29
124,uturoa,-16.7333,-151.4333,78.55,83,30,16.35,PF,2023-10-01 23:09:25
125,hadibu,12.65,54.0333,82.71,72,25,2.46,YE,2023-10-01 23:09:52
126,freetown,8.484,-13.2299,76.71,88,75,5.75,SL,2023-10-01 23:13:14
127,georgetown,5.4112,100.3354,85.89,74,40,4.61,MY,2023-10-01 23:08:25
128,l'arbaa nait irathen,36.6311,4.1986,64.06,51,0,3.24,DZ,2023-10-01 23:15:30
129,kirakira,-10.4544,161.9205,81.5,84,72,12.95,SB,2023-10-01 23:12:40
130,dunedin,-45.8742,170.5036,45.81,82,93,21.99,NZ,2023-10-01 23:06:32
131,swiecie,53.4095,18.4474,57.54,82,63,5.99,PL,2023-10-01 23:15:31
132,alta,69.9689,23.2717,33.19,86,0,0.0,NO,2023-10-01 23:10:27
133,egilsstadir,65.2653,-14.3948,43.09,99,100,16.37,IS,2023-10-01 23:09:37
134,hovd,48.0056,91.6419,49.21,48,7,5.41,MN,2023-10-01 23:09:35
135,chom thong,18.4174,98.6743,88.05,81,85,2.66,TH,2023-10-01 23:13:04
136,baise city,23.8997,106.6133,90.99,53,8,5.19,CN,2023-10-01 23:15:31
137,qorveh,35.1664,47.8045,64.45,38,100,13.18,IR,2023-10-01 23:15:32
138,port elizabeth,-33.918,25.5701,61.32,74,0,7.0,ZA,2023-10-01 23:05:25
139,utrik,11.2278,169.8474,83.44,78,86,12.5,MH,2023-10-01 23:12:49
140,maceio,-9.6658,-35.7353,69.24,100,20,5.75,BR,2023-10-01 23:13:05
141,mapastepec,15.4333,-92.9,77.79,90,99,4.21,MX,2023-10-01 23:15:32
142,gulf shores,30.246,-87.7008,73.69,67,0,6.91,US,2023-10-01 23:15:33
143,severnoye,56.3491,78.3619,47.98,63,90,8.99,RU,2023-10-01 23:15:33
144,shenandoah,30.4013,-91.0009,69.82,86,14,5.08,US,2023-10-01 23:15:33
145,sao francisco,-15.9486,-44.8644,75.87,71,99,2.37,BR,2023-10-01 23:15:33
146,howard springs,-12.497,131.047,87.71,43,19,12.8,AU,2023-10-01 23:15:33
147,carutapera,-1.195,-46.02,79.45,80,47,10.47,BR,2023-10-01 23:10:40
148,al qadarif,14.0349,35.3834,83.07,62,1,8.21,SD,2023-10-01 23:15:34
149,tabas,33.5959,56.9244,83.62,12,0,3.91,IR,2023-10-01 23:09:50
150,guasdualito,7.2424,-70.7324,74.17,96,100,2.48,VE,2023-10-01 23:13:22
151,aquin,18.2833,-73.4,80.92,87,90,3.78,HT,2023-10-01 23:15:34
152,vilyuysk,63.7553,121.6247,39.0,86,100,11.99,RU,2023-10-01 23:10:04
153,mahanoro,-19.9,48.8,81.19,65,22,8.95,MG,2023-10-01 23:15:34
154,touros,-5.1989,-35.4608,75.63,77,43,11.61,BR,2023-10-01 23:10:47
155,acapulco de juarez,16.8634,-99.8901,80.42,78,75,8.05,MX,2023-10-01 23:10:35
156,banda aceh,5.5577,95.3222,87.01,66,74,14.05,ID,2023-10-01 23:15:35
157,east ballina,-28.8667,153.5833,83.8,60,0,16.24,AU,2023-10-01 23:09:32
158,bontang,0.1333,117.5,85.19,66,97,13.8,ID,2023-10-01 23:15:35
159,pitimbu,-7.4706,-34.8086,72.19,73,30,6.55,BR,2023-10-01 23:15:35
160,vorgashor,67.5833,63.95,49.17,98,100,15.32,RU,2023-10-01 23:09:42
161,callao,-12.0667,-77.15,64.69,82,100,14.97,PE,2023-10-01 23:09:59
162,casablanca,33.5928,-7.6192,63.55,82,20,2.3,MA,2023-10-01 23:12:21
163,mugia,43.1041,-9.2179,59.92,95,46,12.77,ES,2023-10-01 23:13:37
164,tosya,41.0155,34.0401,59.81,68,97,5.32,TR,2023-10-01 23:15:36
165,chulakkurgan,43.765,69.1814,65.1,42,2,6.24,KZ,2023-10-01 23:15:36
166,port mathurin,-19.6833,63.4167,73.9,82,14,14.38,MU,2023-10-01 23:09:49
167,tofol,5.3248,163.0078,89.38,70,75,3.44,FM,2023-10-01 23:15:37
168,bac lieu,9.285,105.7244,79.16,86,100,10.87,VN,2023-10-01 23:15:37
169,camabatela,-8.1881,15.375,70.38,70,76,0.34,AO,2023-10-01 23:15:37
170,portland,45.5234,-122.6762,54.52,76,66,1.01,US,2023-10-01 23:08:48
171,hithadhoo,-0.6,73.0833,82.26,74,24,13.18,MV,2023-10-01 23:09:54
172,adelaide,-34.9333,138.6,83.79,23,0,18.41,AU,2023-10-01 23:14:04
173,parabel',58.6978,81.4825,50.92,69,98,14.0,RU,2023-10-01 23:15:38
174,naze,28.3667,129.4833,83.32,76,76,17.54,JP,2023-10-01 23:12:57
175,iqaluit,63.7506,-68.5145,38.7,80,100,5.99,CA,2023-10-01 23:09:50
176,petropavlovsk-kamchatsky,53.0452,158.6483,47.08,92,100,17.9,RU,2023-10-01 23:10:38
177,fale old settlement,-9.3852,-171.2468,81.37,80,43,10.87,TK,2023-10-01 23:13:15
178,el granada,37.5027,-122.4694,55.33,84,0,4.61,US,2023-10-01 23:09:48
179,kargasok,59.0556,80.8572,50.97,70,95,14.0,RU,2023-10-01 23:09:58
180,recani,31.2846,-4.2688,72.77,31,10,4.45,MA,2023-10-01 23:15:39
181,kencong,-8.2833,113.3667,84.38,58,58,11.63,ID,2023-10-01 23:12:57
182,pandan,14.0453,124.1694,85.93,74,100,9.44,PH,2023-10-01 23:09:53
183,queenstown,-31.8976,26.8753,53.2,58,9,2.19,ZA,2023-10-01 23:11:03
184,moapa valley,36.5805,-114.4703,65.48,50,90,9.64,US,2023-10-01 23:15:40
185,ust-nera,64.5667,143.2,35.22,56,27,5.99,RU,2023-10-01 23:09:51
186,sosnovo-ozerskoye,52.5249,111.5418,47.88,29,92,15.43,RU,2023-10-01 23:15:40
187,mount isa,-20.7333,139.5,96.57,13,0,9.22,AU,2023-10-01 23:10:10
188,klyuchi,52.2667,79.1667,54.07,47,0,7.7,RU,2023-10-01 23:09:33
189,caazapa,-26.15,-56.4,56.52,71,1,3.38,PY,2023-10-01 23:15:41
190,marondera,-18.1853,31.5519,62.08,70,74,15.01,ZW,2023-10-01 23:15:41
191,sovetskaya gavan',48.9723,140.2878,50.11,83,100,18.12,RU,2023-10-01 23:15:41
192,kingston,17.997,-76.7936,80.58,83,20,0.0,JM,2023-10-01 23:04:57
193,camarinas,43.1311,-9.1817,59.94,94,46,12.19,ES,2023-10-01 23:15:41
194,solwezi,-12.1688,26.3894,79.02,26,30,12.35,ZM,2023-10-01 23:15:42
195,east london,-33.0153,27.9116,63.54,63,0,10.36,ZA,2023-10-01 23:10:29
196,yarmouth,41.7057,-70.2286,57.94,93,0,11.01,US,2023-10-01 23:11:10
197,tocopilla,-22.092,-70.1979,62.82,81,18,6.46,CL,2023-10-01 23:11:54
198,sungailiat,-1.85,106.1333,87.08,60,95,14.09,ID,2023-10-01 23:15:42
199,nuuk,64.1835,-51.7216,36.21,75,100,11.5,GL,2023-10-01 23:09:58
200,faya-largeau,17.9257,19.1043,86.63,24,99,33.29,TD,2023-10-01 23:15:42
201,svetlyy,54.675,20.1347,53.22,85,21,7.85,RU,2023-10-01 23:15:43
202,xilin hot,43.9667,116.0333,67.82,24,100,13.27,CN,2023-10-01 23:13:13
203,assis,-22.6617,-50.4122,70.03,90,60,4.09,BR,2023-10-01 23:15:43
204,ghanzi,-21.5667,21.7833,72.86,39,0,18.41,BW,2023-10-01 23:15:43
205,kapa'a,22.0752,-159.319,77.58,86,100,12.66,US,2023-10-01 23:10:37
206,colonia,50.9333,6.95,58.14,87,0,2.3,DE,2023-10-01 23:09:57
207,susuman,62.7833,148.1667,33.98,73,16,3.0,RU,2023-10-01 23:10:32
208,margate,51.3813,1.3862,57.94,94,99,7.61,GB,2023-10-01 23:10:23
209,kayangel,8.0823,134.7173,83.43,72,95,1.72,PW,2023-10-01 23:12:21
210,sena madureira,-9.0656,-68.6569,73.6,98,99,1.66,BR,2023-10-01 23:15:44
211,conception bay south,47.4999,-52.9981,51.51,94,3,8.25,CA,2023-10-01 23:15:44
212,west island,-12.1568,96.8225,82.38,69,40,20.71,CC,2023-10-01 23:09:40
213,malvan,16.0667,73.4667,80.56,76,100,8.1,IN,2023-10-01 23:11:05
214,papatowai,-46.5619,169.4708,42.48,74,100,24.72,NZ,2023-10-01 23:09:34
215,masterton,-40.9597,175.6575,54.88,71,83,19.98,NZ,2023-10-01 23:15:45
216,poronaysk,49.2167,143.1167,57.29,78,68,7.94,RU,2023-10-01 23:10:20
217,cartagena del chaira,1.3349,-74.8429,71.89,95,52,0.56,CO,2023-10-01 23:15:45
218,malango,-2.9627,119.9001,87.64,41,86,5.26,ID,2023-10-01 23:12:16
219,nova olimpia,-14.7972,-57.2881,76.08,81,95,2.13,BR,2023-10-01 23:15:46
220,gaigeturi,33.4644,126.3183,73.45,40,0,9.22,KR,2023-10-01 23:15:46
221,molde,62.7375,7.1591,46.24,100,40,8.05,NO,2023-10-01 23:15:46
222,anadyr,64.75,177.4833,33.01,64,0,6.71,RU,2023-10-01 23:09:34
223,bamboo flat,11.7,92.7167,84.29,79,75,13.8,IN,2023-10-01 23:13:20
224,kagoro,9.6,8.3833,68.34,99,100,1.45,NG,2023-10-01 23:15:46
225,stanley,54.868,-1.6985,46.9,95,100,3.44,GB,2023-10-01 23:09:23
226,el calafate,-50.3408,-72.2768,36.9,68,71,4.0,AR,2023-10-01 23:15:47
227,chanika,-5.4167,38.0167,73.74,57,77,4.12,TZ,2023-10-01 23:15:47
228,kapuskasing,49.4169,-82.4331,62.69,94,100,14.97,CA,2023-10-01 23:10:39
229,keelung,25.1283,121.7419,82.74,68,82,14.65,TW,2023-10-01 23:15:47
230,kharan,28.5833,65.4167,82.99,9,0,2.1,PK,2023-10-01 23:15:47
231,al ghayzah,16.2079,52.176,83.97,65,4,5.23,YE,2023-10-01 23:15:48
232,happy valley-goose bay,53.3168,-60.3315,48.58,65,68,6.46,CA,2023-10-01 23:09:04
233,tobelo,1.7284,128.0095,85.55,69,82,4.29,ID,2023-10-01 23:15:48
234,nazarovo,56.0064,90.3914,40.14,55,100,8.99,RU,2023-10-01 23:15:48
235,kosong,38.3788,128.4676,69.55,42,11,4.92,KR,2023-10-01 23:10:03
236,enewetak,11.3474,162.3373,84.4,74,95,11.45,MH,2023-10-01 23:09:31
237,bilqas,31.2145,31.358,77.86,52,91,7.92,EG,2023-10-01 23:15:49
238,santaluz,-11.2558,-39.3747,67.44,93,32,5.21,BR,2023-10-01 23:15:49
239,pochinok,54.4068,32.4407,52.74,80,74,11.3,RU,2023-10-01 23:15:49
240,pangoa,-12.1167,-73.0,69.24,95,96,2.62,PE,2023-10-01 23:15:49
241,remire-montjoly,4.9167,-52.2667,78.84,89,100,0.0,GF,2023-10-01 23:10:14
242,yonggwang-up,40.0183,127.4547,72.93,35,1,4.05,KP,2023-10-01 23:15:49
243,kiruna,67.8557,20.2251,29.32,93,100,3.44,SE,2023-10-01 23:15:50
244,sarh,9.1429,18.3923,77.02,84,95,2.95,TD,2023-10-01 23:15:50
245,puerto baquerizo moreno,-0.9,-89.6,72.43,89,99,10.78,EC,2023-10-01 23:09:54
246,brisas de zicatela,15.8369,-97.0419,78.58,94,99,3.49,MX,2023-10-01 23:09:53
247,howrah,22.5892,88.3103,80.6,94,75,3.44,IN,2023-10-01 23:15:50
248,punta arenas,-53.15,-70.9167,32.11,86,40,12.66,CL,2023-10-01 23:10:14
249,tazacorte,28.629,-17.9293,72.57,83,75,9.22,ES,2023-10-01 23:10:11
250,bushehr,28.9684,50.8385,89.69,37,0,9.22,IR,2023-10-01 23:15:51
251,tralee,52.2704,-9.7026,50.76,96,100,5.12,IE,2023-10-01 23:10:36
252,iskateley,67.6803,53.1512,51.03,96,93,8.01,RU,2023-10-01 23:09:38
253,juan griego,11.0817,-63.9655,91.53,62,99,2.3,VE,2023-10-01 23:15:51
254,hiratacho,35.4333,132.8167,75.16,38,75,10.36,JP,2023-10-01 23:15:51
255,rudnyy,52.9594,63.1206,59.23,53,5,3.89,KZ,2023-10-01 23:15:52
256,fortuna,40.5982,-124.1573,53.67,93,100,1.99,US,2023-10-01 23:10:03
257,manicore,-5.8092,-61.3003,78.84,47,99,2.01,BR,2023-10-01 23:15:52
258,cootamundra,-34.65,148.0333,86.95,13,78,16.22,AU,2023-10-01 23:15:52
259,san luis del palmar,-27.5079,-58.5545,55.94,69,35,6.85,AR,2023-10-01 23:15:52
260,la ronge,55.1001,-105.2842,44.85,87,100,5.75,CA,2023-10-01 23:15:52
261,nadym,65.5333,72.5167,49.3,87,100,18.3,RU,2023-10-01 23:10:05
262,san patricio,28.017,-97.5169,80.64,82,6,9.78,US,2023-10-01 23:09:43
263,popasna,48.6333,38.378,65.86,42,61,3.22,UA,2023-10-01 23:15:53
264,katghora,22.5,82.55,76.28,95,100,4.29,IN,2023-10-01 23:15:53
265,shaoxing,30.011,120.5715,80.55,50,31,10.56,CN,2023-10-01 23:15:53
266,tayu,-6.5397,111.0518,90.68,46,46,10.94,ID,2023-10-01 23:15:54
267,traralgon,-38.1833,146.5333,84.96,20,21,5.14,AU,2023-10-01 23:15:54
268,qingshuping,27.3817,112.0221,84.56,58,81,4.07,CN,2023-10-01 23:15:54
269,ancud,-41.8697,-73.8203,43.03,88,97,2.89,CL,2023-10-01 23:09:37
270,carnarvon,-24.8667,113.6333,71.4,63,39,19.91,AU,2023-10-01 23:10:28
271,prince george,53.9166,-122.753,46.42,96,100,0.0,CA,2023-10-01 23:10:08
272,new norfolk,-42.7826,147.0587,70.0,24,20,9.19,AU,2023-10-01 23:09:25
273,mondovi,44.396,7.8176,65.34,80,26,2.82,IT,2023-10-01 23:15:55
274,mazamari,-11.3258,-74.5308,75.31,82,100,1.74,PE,2023-10-01 23:15:55
275,igarka,67.4667,86.5833,32.31,68,53,14.29,RU,2023-10-01 23:12:38
276,timmins,48.4669,-81.3331,64.22,88,100,6.91,CA,2023-10-01 23:11:56
277,kabo,7.6994,18.629,75.72,90,91,0.94,CF,2023-10-01 23:15:55
278,cabo san lucas,22.8909,-109.9124,81.75,76,5,7.0,MX,2023-10-01 23:06:56
279,salinopolis,-0.6136,-47.3561,79.9,81,60,12.84,BR,2023-10-01 23:15:56
280,mazyr,52.0495,29.2456,53.04,75,84,10.6,BY,2023-10-01 23:15:56
281,dosso,13.049,3.1937,80.38,72,89,4.7,NE,2023-10-01 23:15:56
282,zhangye,38.9342,100.4517,71.35,22,11,7.31,CN,2023-10-01 23:12:30
283,selkirk,50.1436,-96.8845,62.6,94,60,1.01,CA,2023-10-01 23:15:56
284,pemangkat,1.1667,108.9667,85.73,65,100,12.57,ID,2023-10-01 23:12:38
285,tessaoua,13.7574,7.9874,77.77,57,98,6.44,NE,2023-10-01 23:15:57
286,cannonvale,-20.2833,148.7,72.79,71,12,13.78,AU,2023-10-01 23:09:51
287,shakawe,-18.3667,21.85,81.27,18,43,4.18,BW,2023-10-01 23:15:57
288,batticaloa,7.7102,81.6924,86.4,65,99,2.86,LK,2023-10-01 23:12:35
289,katsuura,35.1333,140.3,78.82,61,99,15.93,JP,2023-10-01 23:13:40
290,farsan,32.2569,50.561,69.84,23,24,3.13,IR,2023-10-01 23:15:57
291,dondo,-19.6094,34.7431,69.31,79,100,11.59,MZ,2023-10-01 23:14:17
292,key west,24.5557,-81.7826,82.2,89,0,8.05,US,2023-10-01 23:15:58
293,mayenne,48.3333,-0.6667,56.64,83,65,2.24,FR,2023-10-01 23:15:58
294,konarka,19.9,86.1167,84.6,85,100,13.87,IN,2023-10-01 23:12:41
295,tame,6.461,-71.73,73.54,86,70,3.67,CO,2023-10-01 23:15:58
296,natal,-5.795,-35.2094,71.82,94,20,4.61,BR,2023-10-01 23:14:32
297,port alfred,-33.5906,26.891,63.18,74,3,5.01,ZA,2023-10-01 23:12:43
298,codrington,-38.2667,141.9667,77.11,46,0,12.88,AU,2023-10-01 23:12:55
299,horta,38.5333,-28.6333,65.01,73,40,8.01,PT,2023-10-01 23:15:59
300,tra vinh,9.9347,106.3453,75.87,96,100,4.21,VN,2023-10-01 23:15:59
301,prince albert,53.2001,-105.7677,44.55,93,100,11.5,CA,2023-10-01 23:15:59
302,sitka,57.0531,-135.33,53.49,76,100,8.05,US,2023-10-01 23:10:00
303,luderitz,-26.6481,15.1594,62.35,70,0,5.5,NA,2023-10-01 23:10:06
304,drayton valley,53.2168,-114.9854,41.14,85,75,7.27,CA,2023-10-01 23:16:00
305,labrador city,52.9463,-66.9114,40.91,93,75,5.75,CA,2023-10-01 23:12:43
306,komsomol'sk,49.0097,33.6455,59.04,58,99,13.69,UA,2023-10-01 23:16:00
307,tindouf,27.6711,-8.1474,72.05,26,0,4.61,DZ,2023-10-01 23:16:00
308,maumere,-8.6199,122.2111,83.7,68,84,1.72,ID,2023-10-01 23:16:01
309,taslicay,39.6336,43.375,50.67,59,100,9.71,TR,2023-10-01 23:16:01
310,cape coast,5.1053,-1.2466,76.17,92,41,6.76,GH,2023-10-01 23:16:01
311,nantucket,41.2835,-70.0995,57.65,93,0,11.5,US,2023-10-01 23:12:40
312,ciudad mante,22.7333,-98.9667,74.88,92,17,4.23,MX,2023-10-01 23:14:55
313,cidreira,-30.1811,-50.2056,53.44,76,0,4.7,BR,2023-10-01 23:10:36
314,da nang,16.0678,108.2208,87.78,66,75,4.61,VN,2023-10-01 23:13:03
315,hilo,19.7297,-155.09,76.15,83,100,1.01,US,2023-10-01 23:10:57
316,moss vale,-34.55,150.3833,64.54,37,5,8.19,AU,2023-10-01 23:16:02
317,ashta,23.0167,76.7167,84.4,58,45,6.02,IN,2023-10-01 23:16:02
318,eyl,7.9803,49.8164,85.35,64,18,14.97,SO,2023-10-01 23:16:03
319,mejit,10.2753,170.8646,83.14,79,82,10.63,MH,2023-10-01 23:12:57
320,bacalar,18.6667,-88.3833,77.86,94,24,2.53,MX,2023-10-01 23:16:03
321,carmo do paranaiba,-19.0008,-46.3161,64.74,95,100,1.14,BR,2023-10-01 23:16:03
322,dryden,49.7833,-92.7503,64.69,100,20,12.66,CA,2023-10-01 23:12:34
323,lazaro cardenas,17.9583,-102.2,81.27,88,88,3.33,MX,2023-10-01 23:12:37
324,polyarnyy,69.1989,33.4478,37.72,71,94,14.92,RU,2023-10-01 23:10:59
325,vanimo,-2.6741,141.3028,84.31,74,29,6.33,PG,2023-10-01 23:16:04
326,kalmunai,7.4167,81.8167,87.71,63,96,10.09,LK,2023-10-01 23:09:21
327,imbituba,-28.24,-48.6703,55.47,87,59,8.16,BR,2023-10-01 23:16:04
328,praia da vitoria,38.7333,-27.0667,65.75,80,100,12.01,PT,2023-10-01 23:10:42
329,kshenskiy,51.8408,37.7136,55.0,72,100,7.81,RU,2023-10-01 23:16:05
330,chilca,-12.5211,-76.7372,63.37,93,42,7.47,PE,2023-10-01 23:16:05
331,choszczno,53.169,15.4205,55.78,83,100,5.61,PL,2023-10-01 23:16:05
332,benfeld,48.3706,7.5937,51.87,97,0,2.3,FR,2023-10-01 23:16:05
333,nichinan,31.6,131.3667,78.48,53,78,12.3,JP,2023-10-01 23:12:55
334,laojunmiao,39.8333,97.7333,61.9,23,0,8.03,CN,2023-10-01 23:12:34
335,dakhla,23.6848,-15.958,70.14,79,0,15.9,EH,2023-10-01 23:11:11
336,zemio,5.0314,25.1361,75.25,86,92,1.48,CF,2023-10-01 23:16:06
337,conde,-7.2597,-34.9075,71.06,94,0,4.61,BR,2023-10-01 23:16:06
338,port lincoln,-34.7333,135.8667,78.12,42,0,8.19,AU,2023-10-01 23:09:34
339,pisco,-13.7,-76.2167,64.45,88,0,11.5,PE,2023-10-01 23:09:55
340,geraldton,-28.7667,114.6,68.41,45,100,17.27,AU,2023-10-01 23:09:36
341,robore,-18.3333,-59.75,73.06,48,38,2.48,BO,2023-10-01 23:16:07
342,mitsamiouli,-11.3847,43.2844,79.38,71,5,9.78,KM,2023-10-01 23:16:07
343,novodvinsk,64.4165,40.8122,48.78,95,100,8.97,RU,2023-10-01 23:16:07
344,maych'ew,12.7875,39.5422,63.82,59,0,8.34,ET,2023-10-01 23:16:07
345,calgary,51.0501,-114.0853,40.95,91,100,16.11,CA,2023-10-01 23:14:35
346,haiku-pauwela,20.9219,-156.3051,75.04,72,40,9.22,US,2023-10-01 23:10:14
347,pariaman,-0.619,100.12,84.25,75,91,10.51,ID,2023-10-01 23:13:26
348,ebon,4.582,168.6964,84.52,73,38,7.72,MH,2023-10-01 23:10:53
349,bubaque,11.2833,-15.8333,82.0,83,78,5.73,GW,2023-10-01 23:09:37
350,keflavik,64.0049,-22.5624,46.83,76,0,14.97,IS,2023-10-01 23:09:35
351,bizhbulyak,53.6967,54.2642,55.33,58,100,11.34,RU,2023-10-01 23:16:08
352,tambacounda,13.7539,-13.7586,80.65,94,0,2.3,SN,2023-10-01 23:16:09
353,goundam,16.4145,-3.6708,91.2,33,100,9.1,ML,2023-10-01 23:10:22
354,lohardaga,23.4333,84.6833,79.7,81,97,8.16,IN,2023-10-01 23:16:09
355,panaba,21.2833,-88.2667,77.38,94,94,5.21,MX,2023-10-01 23:16:09
356,moengo,5.6167,-54.4,75.96,88,79,4.34,SR,2023-10-01 23:16:09
357,sretensk,52.2453,117.7093,63.01,33,92,7.4,RU,2023-10-01 23:13:08
358,waddan,29.1614,16.139,68.5,71,15,5.66,LY,2023-10-01 23:09:47
359,ambon,-3.6954,128.1814,84.34,74,75,6.91,ID,2023-10-01 23:09:31
360,pajapan,18.25,-94.7,75.76,90,78,4.56,MX,2023-10-01 23:16:10
361,fort bragg,35.139,-79.006,61.74,91,0,3.44,US,2023-10-01 23:12:54
362,pachino,36.7186,15.0907,72.05,62,0,6.02,IT,2023-10-01 23:10:31
363,kruisfontein,-34.0033,24.7314,58.1,64,4,6.67,ZA,2023-10-01 23:11:07
364,yokadouma,3.5167,15.05,72.14,97,99,1.23,CM,2023-10-01 23:13:12
365,la ligua,-32.4524,-71.2311,51.87,87,92,3.58,CL,2023-10-01 23:16:11
366,itamaraca,-7.7478,-34.8256,77.05,79,10,5.59,BR,2023-10-01 23:16:11
367,wau,7.7029,27.9953,80.06,77,100,2.77,SS,2023-10-01 23:16:11
368,castillos,-34.1667,-53.8333,44.85,90,9,2.06,UY,2023-10-01 23:09:32
369,heihe,50.2441,127.4902,62.67,48,71,5.5,CN,2023-10-01 23:16:11
370,aginskoye,51.1,114.53,56.88,45,100,12.17,RU,2023-10-01 23:12:17
371,sandnessjoen,66.0217,12.6316,41.11,87,75,2.3,NO,2023-10-01 23:10:33
372,shagonar,51.5333,92.8,51.58,56,66,2.62,RU,2023-10-01 23:16:12
373,smeeni,44.9833,26.85,62.51,46,94,14.03,RO,2023-10-01 23:16:12
374,najran,17.4924,44.1277,84.85,14,0,7.29,SA,2023-10-01 23:16:12
375,brookings,44.3114,-96.7984,71.64,56,0,9.22,US,2023-10-01 23:10:42
376,aldinga beach,-35.2793,138.4604,83.44,42,0,5.17,AU,2023-10-01 23:15:26
377,adrasmon,40.6472,69.9856,61.07,26,45,3.69,TJ,2023-10-01 23:16:13
378,la'ie,21.6477,-157.9253,78.21,76,21,8.01,US,2023-10-01 23:13:02
379,lobujya,27.95,86.8167,38.71,98,100,7.9,NP,2023-10-01 23:16:13
380,kajatian,6.0311,120.9919,85.06,69,93,11.52,PH,2023-10-01 23:16:13
381,sinop,41.7711,34.8709,64.83,76,100,6.6,TR,2023-10-01 23:16:13
382,porto novo,6.4965,2.6036,76.57,91,53,4.29,BJ,2023-10-01 23:08:59
383,los aquijes,-14.0967,-75.6908,66.94,77,7,2.08,PE,2023-10-01 23:16:14
384,edremit,39.5961,27.0244,71.35,60,75,10.36,TR,2023-10-01 23:12:01
385,susanville,40.4163,-120.653,42.33,83,0,5.75,US,2023-10-01 23:16:15
386,benguela,-12.5763,13.4055,75.16,75,20,4.59,AO,2023-10-01 23:09:57
387,francistown,-21.17,27.5079,59.77,70,80,22.93,BW,2023-10-01 23:16:15
388,santa cruz,-17.8,-63.1667,78.85,51,98,5.3,BO,2023-10-01 23:11:01
389,antofagasta,-23.65,-70.4,59.31,86,40,3.44,CL,2023-10-01 23:10:49
390,aykhal,66.0,111.5,32.07,98,100,15.99,RU,2023-10-01 23:10:15
391,pilar do sul,-23.8131,-47.7164,60.01,97,100,5.48,BR,2023-10-01 23:16:16
392,rio grande,-32.035,-52.0986,50.95,84,5,6.49,BR,2023-10-01 23:10:02
393,belousovka,50.1339,82.5239,56.25,77,2,2.24,KZ,2023-10-01 23:16:16
394,santa cruz de el seibo,18.7656,-69.0389,76.78,94,98,4.94,DO,2023-10-01 23:16:16
395,shohimardon,39.9839,71.8028,63.37,35,49,7.61,UZ,2023-10-01 23:16:17
396,singkil,-7.9855,111.4161,91.99,34,18,16.02,ID,2023-10-01 23:16:17
397,arawa,-6.2132,155.5367,82.2,90,99,4.59,PG,2023-10-01 23:16:17
398,thunder bay,48.4001,-89.3168,59.85,99,76,3.31,CA,2023-10-01 23:09:24
399,saint-philippe,-21.3585,55.7679,78.39,66,0,5.06,RE,2023-10-01 23:09:33
400,abilene,32.4487,-99.7331,73.02,56,0,9.22,US,2023-10-01 23:15:02
401,westport,41.1415,-73.3579,62.64,81,0,8.01,US,2023-10-01 23:04:52
402,basoko,1.2391,23.616,75.31,87,54,0.92,CD,2023-10-01 23:16:18
403,beyneu,45.3167,55.2,70.23,28,44,13.4,KZ,2023-10-01 23:14:24
404,arraial do cabo,-22.9661,-42.0278,69.87,97,99,3.6,BR,2023-10-01 23:13:49
405,aizawl,23.7333,92.7167,76.8,84,75,4.61,IN,2023-10-01 23:16:19
406,taoudenni,22.6783,-3.9836,86.32,14,40,9.66,ML,2023-10-01 23:12:13
407,fort abbas,29.1925,72.8536,97.09,14,0,7.92,PK,2023-10-01 23:16:19
408,siwa oasis,29.2041,25.5195,75.27,57,97,5.48,EG,2023-10-01 23:13:05
409,suhbaatar,50.2314,106.2078,47.91,35,100,9.89,MN,2023-10-01 23:16:19
410,bentiu,9.2333,29.8333,80.06,76,100,3.06,SS,2023-10-01 23:16:19
411,luganville,-15.5333,167.1667,76.73,82,99,16.53,VU,2023-10-01 23:16:20
412,sesheke,-17.4759,24.2968,85.05,30,12,13.62,ZM,2023-10-01 23:16:20
413,sitangkai,4.6628,119.3928,83.64,77,100,17.72,PH,2023-10-01 23:16:20
414,pizarro,4.9533,-77.366,76.73,89,97,3.33,CO,2023-10-01 23:16:20
415,pathein,16.7833,94.7333,77.43,94,100,6.67,MM,2023-10-01 23:11:00
416,pontal do parana,-25.6533,-48.5128,62.49,92,100,4.5,BR,2023-10-01 23:16:20
417,ketchikan,55.3422,-131.6461,52.27,100,100,5.75,US,2023-10-01 23:13:18
418,ulsteinvik,62.3432,5.8487,53.8,81,69,7.0,NO,2023-10-01 23:16:21
419,ciudad tula,23.0,-99.7167,65.05,93,37,2.98,MX,2023-10-01 23:16:21
420,taulaga,-11.0553,-171.0883,81.41,83,100,22.75,AS,2023-10-01 23:13:50
421,kharagpur,22.3333,87.3333,86.58,77,37,11.83,IN,2023-10-01 23:16:21
422,khandyga,62.6667,135.6,48.15,79,96,4.27,RU,2023-10-01 23:10:33
423,arvayheer,46.2639,102.775,51.48,39,54,9.78,MN,2023-10-01 23:16:22
424,flying fish cove,-10.4217,105.6791,80.28,69,40,16.11,CX,2023-10-01 23:09:57
425,pahrump,36.2083,-115.9839,58.98,51,40,5.99,US,2023-10-01 23:16:22
426,ta`u,-14.2336,-169.5144,80.01,80,67,22.48,AS,2023-10-01 23:12:52
427,caetite,-14.0694,-42.475,65.89,91,23,6.08,BR,2023-10-01 23:16:22
428,carhaix-plouguer,48.2759,-3.5733,60.15,89,96,2.26,FR,2023-10-01 23:16:23
429,motygino,58.1831,94.7592,38.79,54,99,10.0,RU,2023-10-01 23:16:23
430,mosjoen,65.836,13.1908,36.12,93,75,0.0,NO,2023-10-01 23:16:23
431,revelstoke,50.9832,-118.2023,44.62,93,75,2.3,CA,2023-10-01 23:16:23
432,verkhnyaya sinyachikha,57.976,61.6673,57.11,60,88,11.88,RU,2023-10-01 23:16:23
433,nacajuca,18.1333,-93.0167,79.02,94,66,1.7,MX,2023-10-01 23:16:24
434,tazovsky,67.4667,78.7,35.47,98,100,19.42,RU,2023-10-01 23:09:59
435,al khums,32.6486,14.2619,74.17,67,0,4.99,LY,2023-10-01 23:16:24
436,empangeni,-28.762,31.8933,63.5,65,100,2.01,ZA,2023-10-01 23:16:24
437,whakatane,-37.9585,176.9854,63.46,82,5,4.0,NZ,2023-10-01 23:12:29
438,leh,34.1667,77.5833,52.3,31,21,4.99,IN,2023-10-01 23:10:49
439,norderney,53.7,7.15,59.36,91,100,13.42,DE,2023-10-01 23:16:25
440,saldanha,-33.0117,17.9442,61.92,50,0,6.64,ZA,2023-10-01 23:10:27
441,strezhevoy,60.7333,77.5889,48.96,77,88,11.99,RU,2023-10-01 23:16:25
442,choibalsan,48.0667,114.5,62.94,25,100,7.29,MN,2023-10-01 23:16:25
443,nouadhibou,20.931,-17.0347,76.98,53,0,13.8,MR,2023-10-01 23:10:59
444,mar del plata,-38.0023,-57.5575,47.16,95,100,6.91,AR,2023-10-01 23:05:41
445,pyay,18.8167,95.2167,75.81,98,98,6.8,MM,2023-10-01 23:16:26
446,ishqoshim,36.7248,71.6133,55.22,28,9,2.84,TJ,2023-10-01 23:14:51
447,taro,-8.3862,115.28,78.8,54,84,5.44,ID,2023-10-01 23:16:26
448,massakory,12.996,15.7293,82.51,62,100,7.45,TD,2023-10-01 23:16:26
449,harstad,68.799,16.5293,40.6,93,100,3.0,NO,2023-10-01 23:09:29
450,alofi,-19.0595,-169.9187,71.49,68,100,18.41,NU,2023-10-01 23:10:15
451,palikir - national government center,6.9248,158.1611,84.07,72,21,5.57,FM,2023-10-01 23:09:48
452,cockburn town,21.4612,-71.1419,83.41,75,68,15.21,TC,2023-10-01 23:05:07
453,jwaneng,-24.6004,24.7303,63.64,61,0,23.6,BW,2023-10-01 23:16:27
454,belmonte,-15.8631,-38.8828,70.63,87,27,2.95,BR,2023-10-01 23:12:40
455,esperanza,19.5847,-70.9849,76.32,92,62,3.96,DO,2023-10-01 23:16:27
456,vicosa,-20.7539,-42.8819,65.44,97,100,6.26,BR,2023-10-01 23:15:21
457,juneau,58.3019,-134.4197,47.55,97,100,10.36,US,2023-10-01 23:13:06
458,okhotsk,59.3833,143.3,49.12,68,64,1.52,RU,2023-10-01 23:16:28
459,murray bridge,-35.1167,139.2667,88.12,17,0,18.39,AU,2023-10-01 23:16:28
460,benjamin hill,30.1667,-111.1,66.51,45,0,1.28,MX,2023-10-01 23:16:28
461,suva,-18.1416,178.4415,72.88,83,75,12.66,FJ,2023-10-01 23:10:48
462,mapimi,25.8167,-103.85,73.63,60,64,7.63,MX,2023-10-01 23:16:28
463,fort mcmurray,56.7268,-111.381,48.76,60,97,7.31,CA,2023-10-01 23:10:14
464,sur,22.5667,59.5289,89.8,54,48,7.43,OM,2023-10-01 23:10:19
465,kavieng,-2.5744,150.7967,84.36,71,74,3.76,PG,2023-10-01 23:16:29
466,baihe,22.15,107.2333,92.97,47,8,1.07,CN,2023-10-01 23:16:29
467,amga,60.8953,131.9608,51.98,60,98,7.0,RU,2023-10-01 23:12:19
468,hamilton,39.1834,-84.5333,61.57,88,0,3.44,US,2023-10-01 23:06:25
469,bandon,51.7469,-8.7425,53.19,96,100,5.97,IE,2023-10-01 23:16:30
470,xiaogan,30.9167,113.9,69.89,83,100,6.02,CN,2023-10-01 23:16:30
471,port saint john's,-31.6229,29.5448,65.86,61,39,14.85,ZA,2023-10-01 23:10:41
472,dharmadam,11.7833,75.4333,83.93,69,84,3.69,IN,2023-10-01 23:16:30
473,abaza,52.655,90.0928,55.04,48,16,3.11,RU,2023-10-01 23:16:30
474,guerrero negro,27.9769,-114.0611,67.01,80,22,15.99,MX,2023-10-01 23:10:01
475,george town,5.4112,100.3354,87.96,71,20,6.91,MY,2023-10-01 23:16:31
476,crane,31.3974,-102.3501,74.75,67,7,16.53,US,2023-10-01 23:10:26
477,lautoka,-17.6167,177.4667,76.86,65,40,9.22,FJ,2023-10-01 23:16:31
478,vila franca do campo,37.7167,-25.4333,66.88,99,86,8.68,PT,2023-10-01 23:13:01
479,grande prairie,55.1667,-118.8027,48.38,81,100,5.75,CA,2023-10-01 23:13:23
480,moose jaw,50.4001,-105.5344,48.45,93,100,9.22,CA,2023-10-01 23:11:37
481,terrace,54.5163,-128.6035,49.91,93,100,3.44,CA,2023-10-01 23:16:32
482,kuanda,56.3161,116.0806,38.34,80,100,6.51,RU,2023-10-01 23:16:32
483,komotini,41.1228,25.3964,68.05,60,59,6.46,GR,2023-10-01 23:12:52
484,salahonda,2.1019,-78.7217,79.3,82,100,10.8,CO,2023-10-01 23:16:33
485,anadarko,35.0726,-98.2437,69.73,50,92,8.39,US,2023-10-01 23:16:33
486,valday,57.9747,33.2525,50.04,86,95,10.0,RU,2023-10-01 23:16:33
487,punta del este,-34.9667,-54.95,47.86,88,20,3.44,UY,2023-10-01 23:12:38
488,severo-yeniseyskiy,60.3725,93.0408,26.58,87,100,8.01,RU,2023-10-01 23:16:33
489,elko,41.0002,-115.5012,44.37,87,75,5.01,US,2023-10-01 23:11:10
490,gdansk,54.3521,18.6464,57.09,92,75,3.44,PL,2023-10-01 23:15:33
491,pujili,-0.95,-78.6833,41.18,100,40,6.91,EC,2023-10-01 23:16:34
492,magnitogorsk,53.4186,59.0472,52.59,61,29,7.76,RU,2023-10-01 23:16:34
493,flin flon,54.7682,-101.865,39.27,93,100,4.7,CA,2023-10-01 23:16:34
494,babruysk,53.15,29.2333,53.13,82,82,9.01,BY,2023-10-01 23:16:34
495,alice springs,-23.7,133.8833,98.15,12,40,17.27,AU,2023-10-01 23:10:15
496,leeton,-34.5667,146.4,89.1,12,69,16.31,AU,2023-10-01 23:16:35
497,bam,29.106,58.357,84.83,15,0,5.5,IR,2023-10-01 23:16:35
498,guatrache,-37.6678,-63.5302,56.55,47,99,16.22,AR,2023-10-01 23:16:35
499,yelizovo,53.1873,158.3805,48.22,93,100,13.42,RU,2023-10-01 23:16:35
500,kabare,-2.4683,28.8242,73.02,65,64,3.15,CD,2023-10-01 23:16:36
501,orsa,54.5153,30.4053,49.78,85,43,11.52,BY,2023-10-01 23:16:36
502,antalaha,-14.9003,50.2788,78.96,66,57,3.71,MG,2023-10-01 23:16:36
503,alexandria,31.2156,29.9553,75.74,53,100,11.99,EG,2023-10-01 23:02:36
504,longboat key,27.4125,-82.659,75.52,61,0,8.05,US,2023-10-01 23:07:50
505,sisimiut,66.9395,-53.6735,32.16,66,82,8.66,GL,2023-10-01 23:16:37
506,khilok,51.3674,110.4676,46.26,47,100,11.12,RU,2023-10-01 23:16:37
507,prince rupert,54.3161,-130.3201,52.2,91,75,17.27,CA,2023-10-01 23:06:20
508,nizhneangarsk,55.7833,109.55,37.0,52,70,4.0,RU,2023-10-01 23:16:37
509,oranjemund,-28.55,16.4333,63.45,65,0,1.41,NA,2023-10-01 23:16:37
510,dubrovnik,42.6481,18.0922,69.44,40,0,24.16,HR,2023-10-01 23:16:38
511,midvagur,62.0511,-7.1939,50.83,93,100,16.11,FO,2023-10-01 23:16:38
512,alaghsas,17.0187,8.0168,81.16,43,43,8.16,NE,2023-10-01 23:10:51
513,selebi-phikwe,-21.979,27.8498,58.96,71,62,19.95,BW,2023-10-01 23:16:38
514,estancia,-11.2683,-37.4383,67.77,94,4,2.39,BR,2023-10-01 23:16:38
515,hobyo,5.3505,48.5268,82.92,72,49,14.81,SO,2023-10-01 23:10:44
516,duong dong,10.2167,103.9667,80.6,94,75,12.66,VN,2023-10-01 23:16:39
517,rongelap,11.1635,166.8941,84.11,77,70,12.75,MH,2023-10-01 23:11:12
518,xuddur,4.1213,43.8894,81.9,56,10,13.35,SO,2023-10-01 23:16:39
519,campo mourao,-24.0456,-52.3831,64.96,80,4,2.06,BR,2023-10-01 23:16:40
520,clinton,42.587,-82.9199,61.02,92,100,0.0,US,2023-10-01 23:16:40
521,walvis bay,-22.9575,14.5053,54.09,77,0,1.92,NA,2023-10-01 23:13:24
522,shahin dezh,36.6793,46.5669,69.66,35,98,17.43,IR,2023-10-01 23:16:40
523,gunjur,13.2019,-16.7339,77.07,100,40,0.0,GM,2023-10-01 23:16:40
524,quellon,-43.1167,-73.6167,38.66,88,13,2.68,CL,2023-10-01 23:16:40
525,concepcion,-36.827,-73.0498,48.0,76,100,3.44,CL,2023-10-01 23:16:41
526,kentau,43.5206,68.5094,67.37,31,1,4.29,KZ,2023-10-01 23:16:41
527,turaif,31.6725,38.6637,70.05,56,75,16.11,SA,2023-10-01 23:16:41
528,rabo de peixe,37.8,-25.5833,65.98,99,20,11.5,PT,2023-10-01 23:16:41
529,i-n-salah,27.1935,2.4607,77.38,37,0,17.25,DZ,2023-10-01 23:16:41
530,al muwayh,22.4333,41.7583,89.42,11,0,12.39,SA,2023-10-01 23:10:39
531,papao,-17.75,-149.55,80.28,83,6,18.21,PF,2023-10-01 23:16:42
532,hasaki,35.7333,140.8333,75.6,52,95,17.25,JP,2023-10-01 23:10:47
533,kandira,41.0736,30.1746,62.78,77,99,3.42,TR,2023-10-01 23:16:42
534,hauterive,46.0901,3.4459,61.56,59,18,4.61,FR,2023-10-01 23:16:42
535,port douglas,-16.4833,145.4667,76.15,71,42,9.98,AU,2023-10-01 23:10:13
536,palmer,42.1584,-72.3287,56.7,82,0,8.05,US,2023-10-01 23:11:30
537,mogadishu,2.0371,45.3438,81.05,77,23,14.94,SO,2023-10-01 23:16:43
538,arish,31.1316,33.7984,78.22,59,90,10.98,EG,2023-10-01 23:16:43
539,enriquillo,17.9,-71.2333,81.57,85,100,4.88,DO,2023-10-01 23:16:43
540,namtsy,62.7161,129.6658,44.17,84,100,4.7,RU,2023-10-01 23:13:04
541,waingapu,-9.6567,120.2641,85.51,64,60,12.91,ID,2023-10-01 23:12:33
542,mangrol,21.1167,70.1167,84.54,53,25,9.78,IN,2023-10-01 23:16:44
543,lepsy,46.235,78.9456,70.57,32,64,12.24,KZ,2023-10-01 23:16:44
544,labangan,7.8654,123.5123,84.18,75,98,6.98,PH,2023-10-01 23:16:44
545,san pedro pochutla,15.7333,-96.4667,75.85,93,97,5.57,MX,2023-10-01 23:11:00
546,malax,62.9423,21.5731,41.36,100,75,1.14,FI,2023-10-01 23:16:44
547,sibi,29.5448,67.8764,95.05,6,0,4.83,PK,2023-10-01 23:16:44
548,melfi,40.9965,15.6514,61.48,63,1,4.0,IT,2023-10-01 23:16:45
549,pyt-yakh,60.7499,72.8582,49.66,69,23,13.31,RU,2023-10-01 23:16:45
550,christchurch,-43.5333,172.6333,53.4,60,75,27.63,NZ,2023-10-01 23:07:38
551,kamina,-8.7386,24.9906,77.18,59,15,2.59,CD,2023-10-01 23:16:45
552,zdolbuniv,50.5206,26.2425,56.14,67,33,7.38,UA,2023-10-01 23:16:46
553,sao joao da barra,-21.6403,-41.0511,69.66,94,100,9.06,BR,2023-10-01 23:09:47
554,kokkola,63.8385,23.1307,45.63,94,20,3.44,FI,2023-10-01 23:16:46
555,arkhangel'sk,64.5401,40.5433,49.12,95,100,9.08,RU,2023-10-01 23:12:20
556,gowurdak,37.8124,66.0466,74.52,15,5,2.64,TM,2023-10-01 23:16:46
557,batesville,35.7698,-91.641,64.67,86,0,3.44,US,2023-10-01 23:16:47
558,al khawr,25.7667,51.3167,95.77,33,0,14.16,QA,2023-10-01 23:16:47
559,port shepstone,-30.7414,30.455,64.72,66,54,15.19,ZA,2023-10-01 23:16:47
560,mount pearl,47.5166,-52.7813,51.6,92,4,8.1,CA,2023-10-01 23:09:28
561,nizhnevartovsk,60.9344,76.5531,51.82,76,40,15.99,RU,2023-10-01 23:16:47
562,vangviang,18.9333,102.45,92.25,54,30,3.33,LA,2023-10-01 23:16:47
563,espanola,35.9911,-106.0806,65.07,64,12,1.99,US,2023-10-01 23:16:48
564,sao jose da coroa grande,-8.8978,-35.1478,72.46,79,13,1.43,BR,2023-10-01 23:06:49
565,kutum,14.2,24.6667,82.8,40,92,6.02,SD,2023-10-01 23:16:48
566,perry,37.2506,-83.1999,65.12,81,0,2.39,US,2023-10-01 23:13:52
567,hongjiang,27.11,109.9956,84.79,64,96,2.04,CN,2023-10-01 23:16:48
568,urangan,-25.3,152.9,74.07,62,0,9.82,AU,2023-10-01 23:16:48
569,alesund,62.4723,6.1549,53.64,78,20,6.91,NO,2023-10-01 23:14:36
570,likiep,9.8251,169.3107,83.23,78,44,10.65,MH,2023-10-01 23:16:49
571,kailua-kona,19.6406,-155.9956,78.26,81,100,8.05,US,2023-10-01 23:09:30
572,recreo,-29.2818,-65.061,66.02,34,19,16.33,AR,2023-10-01 23:16:49
573,guli,28.8833,120.0333,80.28,52,15,4.23,CN,2023-10-01 23:16:49
574,taltal,-25.4,-70.4833,58.33,83,19,2.15,CL,2023-10-01 23:16:50
575,kodinsk,58.6881,99.1844,34.45,71,99,9.22,RU,2023-10-01 23:16:50
