City ID,City,Latitude,Longitude,Temperature,Humidity,Cloudiness,Wind Speed,Country,Date/Time
0,margaret river,-33.95,115.0667,60.98,78,100,19.24,AU,2023-09-14 11:43:18
1,edinburgh of the seven seas,-37.0676,-12.3116,51.91,68,55,15.23,SH,2023-09-14 11:43:19
2,nova sintra,14.8667,-24.7167,75.85,82,9,13.87,CV,2023-09-14 11:43:19
3,adamstown,-25.066,-130.1015,64.4,57,100,20.4,PN,2023-09-14 11:43:19
4,port-aux-francais,-49.35,70.2167,38.3,85,94,36.46,TF,2023-09-14 11:43:20
5,afaahiti,-17.75,-149.2833,71.47,90,100,20.71,PF,2023-09-14 11:43:20
6,lompoc,34.6391,-120.4579,65.59,83,100,1.99,US,2023-09-14 11:43:20
7,albany,42.6001,-73.9662,68.94,60,8,1.99,US,2023-09-14 11:42:27
8,bilibino,68.0546,166.4372,32.9,82,97,3.67,RU,2023-09-14 11:33:57
9,wailua homesteads,22.0669,-159.378,77.83,79,20,13.8,US,2023-09-14 11:33:22
10,camapua,-19.5314,-54.0439,79.74,50,100,2.84,BR,2023-09-14 11:43:21
11,pasuquin,18.3328,120.6177,76.95,94,20,3.44,PH,2023-09-14 11:43:21
12,dryden,49.7833,-92.7503,55.69,82,100,10.36,CA,2023-09-14 11:33:24
13,gonzaga,44.9498,10.8209,74.16,76,100,6.78,IT,2023-09-14 11:43:21
14,bredasdorp,-34.5322,20.0403,51.13,80,98,6.29,ZA,2023-09-14 11:33:46
15,grytviken,-54.2811,-36.5092,20.25,75,4,3.11,GS,2023-09-14 11:43:22
16,gherla,47.0333,23.9167,68.7,87,99,2.39,RO,2023-09-14 11:43:22
17,lebu,-37.6167,-73.65,54.64,97,100,8.14,CL,2023-09-14 11:33:44
18,khowy,38.5503,44.9521,64.27,55,65,4.63,IR,2023-09-14 11:43:22
19,kingston,17.997,-76.7936,90.55,62,20,9.22,JM,2023-09-14 11:33:53
20,tol'yatti,53.5303,49.3461,59.94,61,71,2.62,RU,2023-09-14 11:43:23
21,bethel,41.3712,-73.414,73.85,55,0,11.5,US,2023-09-14 11:32:57
22,alice springs,-23.7,133.8833,51.35,37,0,0.0,AU,2023-09-14 11:35:29
23,kruisfontein,-34.0033,24.7314,50.74,78,95,4.12,ZA,2023-09-14 11:33:41
24,palikir - national government center,6.9248,158.1611,77.74,94,75,3.44,FM,2023-09-14 11:33:47
25,cidade velha,14.9167,-23.6167,82.87,78,40,14.97,CV,2023-09-14 11:43:23
26,puerto natales,-51.7236,-72.4875,41.59,72,100,4.18,CL,2023-09-14 11:33:33
27,vilyuchinsk,52.9306,158.4028,55.67,79,100,7.74,RU,2023-09-14 11:35:43
28,aykhal,66.0,111.5,45.46,93,100,12.59,RU,2023-09-14 11:35:12
29,hasaki,35.7333,140.8333,75.6,91,10,7.58,JP,2023-09-14 11:35:53
30,kodiak,57.79,-152.4072,44.11,81,75,3.44,US,2023-09-14 11:33:37
31,qamdo,31.1667,97.2333,34.25,63,0,1.68,CN,2023-09-14 11:34:31
32,west island,-12.1568,96.8225,76.98,73,100,10.36,CC,2023-09-14 11:34:04
33,belyy yar,53.6039,91.3903,44.49,93,0,0.0,RU,2023-09-14 11:43:25
34,kavaratti,10.5669,72.642,82.13,79,100,14.32,IN,2023-09-14 11:43:25
35,kurumkan,54.3,110.3,47.1,66,79,1.92,RU,2023-09-14 11:43:25
36,bryne,58.7354,5.6477,56.25,92,40,3.44,NO,2023-09-14 11:43:25
37,touros,-5.1989,-35.4608,81.84,66,6,17.47,BR,2023-09-14 11:43:15
38,kaga bandoro,6.9896,19.1874,72.59,96,83,3.85,CF,2023-09-14 11:34:45
39,chegdomyn,51.1167,133.0167,40.42,99,100,2.3,RU,2023-09-14 11:32:20
40,edd,13.9297,41.6925,89.02,72,100,6.73,ER,2023-09-14 11:43:26
41,georgetown,5.4112,100.3354,81.0,92,20,2.3,MY,2023-09-14 11:33:18
42,constantia,44.1833,28.65,70.48,63,60,18.99,RO,2023-09-14 11:33:36
43,invercargill,-46.4,168.35,44.02,74,82,15.99,NZ,2023-09-14 11:30:14
44,ta`u,-14.2336,-169.5144,80.04,79,23,18.14,AS,2023-09-14 11:34:44
45,punta arenas,-53.15,-70.9167,44.71,49,40,23.02,CL,2023-09-14 11:33:19
46,ushuaia,-54.8,-68.3,40.66,65,20,12.66,AR,2023-09-14 11:33:42
47,blackmans bay,-43.0167,147.3167,55.53,65,100,8.68,AU,2023-09-14 11:43:27
48,tavda,58.0425,65.2726,51.75,73,90,2.48,RU,2023-09-14 11:43:28
49,akjoujt,19.6969,-14.4164,103.62,17,9,16.33,MR,2023-09-14 11:43:28
50,sao paulo de olivenca,-3.3783,-68.8725,97.0,37,89,5.77,BR,2023-09-14 11:43:28
51,heber city,40.5069,-111.4132,69.89,50,88,1.99,US,2023-09-14 11:43:28
52,urangan,-25.3,152.9,64.74,64,10,12.53,AU,2023-09-14 11:34:22
53,chilca,-12.5211,-76.7372,66.0,80,100,7.23,PE,2023-09-14 11:43:28
54,waitangi,-43.9535,-176.5597,54.82,90,99,7.0,NZ,2023-09-14 11:43:29
55,jamestown,42.097,-79.2353,64.42,54,75,10.36,US,2023-09-14 11:41:58
56,papatowai,-46.5619,169.4708,43.18,81,100,20.51,NZ,2023-09-14 11:43:29
57,bertoua,4.5833,13.6833,69.51,97,96,2.89,CM,2023-09-14 11:43:29
58,villamontes,-21.25,-63.5,81.84,32,0,5.75,BO,2023-09-14 11:43:30
59,aasiaat,68.7098,-52.8699,34.27,96,100,5.84,GL,2023-09-14 11:35:32
60,vila velha,-20.3297,-40.2925,81.95,74,0,19.57,BR,2023-09-14 11:35:10
61,mirny,62.5353,113.9611,42.24,81,100,13.0,RU,2023-09-14 11:38:32
62,yellowknife,62.456,-114.3525,54.32,94,100,4.61,CA,2023-09-14 11:33:09
63,l'alcora,40.0667,-0.2,75.22,78,29,3.29,ES,2023-09-14 11:43:31
64,thompson,55.7435,-97.8558,64.56,77,100,4.61,CA,2023-09-14 11:30:17
65,hamilton,39.1834,-84.5333,74.98,49,75,8.05,US,2023-09-14 11:31:27
66,yulinshi,38.2906,109.7494,64.13,75,3,12.93,CN,2023-09-14 11:43:32
67,salinopolis,-0.6136,-47.3561,83.89,73,25,14.45,BR,2023-09-14 11:42:30
68,saipan,15.1355,145.701,79.5,89,40,3.44,MP,2023-09-14 11:43:32
69,kimbe,-5.5502,150.1429,75.16,86,43,7.61,PG,2023-09-14 11:35:32
70,lihue,21.9789,-159.3672,77.92,77,20,13.8,US,2023-09-14 11:43:33
71,codrington,-38.2667,141.9667,53.08,87,95,10.0,AU,2023-09-14 11:43:33
72,hilo,19.7297,-155.09,75.88,92,100,4.61,US,2023-09-14 11:34:00
73,ribeira grande,38.5167,-28.7,75.6,88,40,11.5,PT,2023-09-14 11:33:33
74,arkhangel'sk,64.5401,40.5433,60.71,75,100,11.36,RU,2023-09-14 11:34:40
75,conceicao da barra,-18.5933,-39.7322,80.24,69,0,12.39,BR,2023-09-14 11:43:33
76,nuuk,64.1835,-51.7216,39.81,70,75,24.16,GL,2023-09-14 11:43:34
77,atbara,17.7022,33.9864,99.27,20,11,11.23,SD,2023-09-14 11:43:34
78,anuradhapura,8.3565,80.4173,77.79,80,62,12.41,LK,2023-09-14 11:43:34
79,avarua,-21.2078,-159.775,75.25,78,20,12.66,CK,2023-09-14 11:33:44
80,college,64.8569,-147.8028,49.48,68,75,6.91,US,2023-09-14 11:43:34
81,st. john's,47.5649,-52.7093,63.16,96,100,13.8,CA,2023-09-14 11:42:42
82,puerto ayora,-0.7393,-90.3518,78.55,85,55,14.0,EC,2023-09-14 11:31:21
83,pangai,-19.8,-174.35,73.51,83,20,11.5,TO,2023-09-14 11:43:35
84,labytnangi,66.6572,66.4183,55.22,88,39,8.03,RU,2023-09-14 11:32:22
85,genhe,50.7833,121.5167,41.09,79,3,3.33,CN,2023-09-14 11:35:46
86,hopelchen,19.7667,-89.85,99.93,30,99,3.02,MX,2023-09-14 11:43:35
87,shekhupura,31.7131,73.9783,84.25,62,0,7.23,PK,2023-09-14 11:43:35
88,guneysu,40.9776,40.6136,62.26,86,22,3.62,TR,2023-09-14 11:43:36
89,colonia,50.9333,6.95,63.61,67,0,4.61,DE,2023-09-14 11:34:49
90,hermanus,-34.4187,19.2345,55.87,81,41,19.53,ZA,2023-09-14 11:43:36
91,nova vicosa,-17.8919,-39.3719,79.95,71,0,14.99,BR,2023-09-14 11:35:16
92,uturoa,-16.7333,-151.4333,76.48,82,100,23.02,PF,2023-09-14 11:34:55
93,kirakira,-10.4544,161.9205,75.11,87,86,3.85,SB,2023-09-14 11:43:37
94,badger,64.8,-147.5333,48.52,65,0,6.91,US,2023-09-14 11:43:37
95,asbe teferi,9.0833,40.8667,64.94,75,99,6.35,ET,2023-09-14 11:43:37
96,anadyr,64.75,177.4833,35.01,100,40,4.47,RU,2023-09-14 11:33:55
97,fauske,67.2588,15.3918,42.35,75,16,4.05,NO,2023-09-14 11:43:37
98,wellington,-41.2866,174.7756,51.4,85,53,9.22,NZ,2023-09-14 11:43:38
99,weno,7.4515,151.8468,83.7,72,100,3.47,FM,2023-09-14 11:33:40
100,an nuhud,12.7,28.4333,90.25,37,6,6.93,SD,2023-09-14 11:43:38
101,vernon,50.2581,-119.2691,67.5,39,65,2.3,CA,2023-09-14 11:34:14
102,klaksvik,62.2266,-6.589,49.12,93,100,40.91,FO,2023-09-14 11:43:38
103,chonchi,-42.6128,-73.8092,53.11,96,100,13.89,CL,2023-09-14 11:33:50
104,sinabang,2.4803,96.3801,81.03,81,100,6.24,ID,2023-09-14 11:34:29
105,tolanaro,-25.0319,46.9987,68.07,94,75,13.8,MG,2023-09-14 11:34:04
106,severo-yeniseyskiy,60.3725,93.0408,40.42,84,14,2.21,RU,2023-09-14 11:34:23
107,maragogi,-9.0122,-35.2225,78.39,75,5,9.69,BR,2023-09-14 11:43:39
108,hithadhoo,-0.6,73.0833,82.63,77,20,16.06,MV,2023-09-14 11:33:44
109,iskateley,67.6803,53.1512,43.95,92,100,12.5,RU,2023-09-14 11:34:51
110,duong dong,10.2167,103.9667,80.6,89,40,6.91,VN,2023-09-14 11:43:40
111,hawaiian paradise park,19.5933,-154.9731,74.79,92,100,4.61,US,2023-09-14 11:43:41
112,souillac,-20.5167,57.5167,71.98,78,40,6.91,MU,2023-09-14 11:43:41
113,vorgashor,67.5833,63.95,48.61,89,100,3.22,RU,2023-09-14 11:33:55
114,cidreira,-30.1811,-50.2056,58.41,68,26,18.7,BR,2023-09-14 11:35:35
115,ilulissat,69.2167,-51.1,41.02,65,75,3.44,GL,2023-09-14 11:34:05
116,ust-nera,64.5667,143.2,33.64,92,77,4.74,RU,2023-09-14 11:43:42
117,osorno,-40.5667,-73.15,55.71,94,100,10.36,CL,2023-09-14 11:43:43
118,rio grande,-32.035,-52.0986,59.95,69,13,11.25,BR,2023-09-14 11:38:51
119,beruwala,6.4788,79.9828,78.01,88,100,6.06,LK,2023-09-14 11:43:44
120,tantou,26.0314,119.5986,80.37,83,20,4.47,CN,2023-09-14 11:43:44
121,morehead city,34.7229,-76.726,83.77,67,75,14.97,US,2023-09-14 11:42:06
122,fale old settlement,-9.3852,-171.2468,82.67,75,5,8.3,TK,2023-09-14 11:43:44
123,pacific grove,36.6177,-121.9166,61.66,88,75,3.44,US,2023-09-14 11:43:44
124,puerto leguizamo,-0.1934,-74.7819,89.35,52,96,1.99,CO,2023-09-14 11:35:42
125,ankang,32.68,109.0172,68.41,86,94,1.45,CN,2023-09-14 11:43:45
126,sisimiut,66.9395,-53.6735,38.48,87,100,27.49,GL,2023-09-14 11:43:45
127,balimila,18.25,82.1333,71.74,97,100,2.39,IN,2023-09-14 11:43:45
128,olonkinbyen,70.9221,-8.7187,39.58,79,21,5.03,SJ,2023-09-14 11:43:46
129,nampula,-15.1165,39.2666,73.35,78,40,10.36,MZ,2023-09-14 11:43:46
130,lisala,2.15,21.5167,71.58,82,100,0.31,CD,2023-09-14 11:43:46
131,tsiombe,-25.3,45.4833,68.67,81,2,15.73,MG,2023-09-14 11:34:48
132,hadibu,12.65,54.0333,79.32,81,22,16.84,YE,2023-09-14 11:34:03
133,talnakh,69.4865,88.3972,52.21,95,100,18.66,RU,2023-09-14 11:43:46
134,alappuzha,9.49,76.3264,78.17,83,96,3.69,IN,2023-09-14 11:43:47
135,longyearbyen,78.2186,15.6401,37.24,81,40,20.71,SJ,2023-09-14 11:43:47
136,port mathurin,-19.6833,63.4167,73.65,72,100,14.9,MU,2023-09-14 11:33:56
137,sint michiel liber,12.15,-68.9833,94.82,63,20,13.8,CW,2023-09-14 11:43:47
138,lata,40.1629,-8.3327,70.92,79,93,1.86,PT,2023-09-14 11:35:13
139,remire-montjoly,4.9167,-52.2667,93.24,59,0,6.91,GF,2023-09-14 11:43:48
140,allapalli,19.4167,80.0667,74.5,100,100,3.51,IN,2023-09-14 11:43:48
141,kolonia,50.9333,6.95,63.57,67,0,4.61,DE,2023-09-14 11:39:19
142,mount gambier,-37.8333,140.7667,53.13,90,100,8.05,AU,2023-09-14 11:43:48
143,andovoranto,-18.95,49.1,69.19,89,54,5.28,MG,2023-09-14 11:43:49
144,petropavlovsk-kamchatsky,53.0452,158.6483,54.19,50,0,17.9,RU,2023-09-14 11:32:22
145,central,30.5544,-91.0368,88.05,64,20,1.99,US,2023-09-14 11:43:49
146,flying fish cove,-10.4217,105.6791,74.88,83,40,13.8,CX,2023-09-14 11:33:49
147,carutapera,-1.195,-46.02,85.62,65,27,9.1,BR,2023-09-14 11:35:39
148,fort bragg,35.139,-79.006,83.77,56,0,13.8,US,2023-09-14 11:43:50
149,tsetserleg,47.475,101.4542,40.59,96,100,2.26,MN,2023-09-14 11:35:51
150,whitehorse,60.7161,-135.0538,48.67,66,75,13.8,CA,2023-09-14 11:31:31
151,sault ste. marie,46.5168,-84.3333,63.28,49,40,6.91,CA,2023-09-14 11:32:36
152,chibougamau,49.9168,-74.3659,53.22,71,100,11.5,CA,2023-09-14 11:43:19
153,san angelo,31.4638,-100.437,85.37,62,0,5.75,US,2023-09-14 11:36:47
154,wanlaweyn,2.6185,44.8938,78.08,77,93,19.01,SO,2023-09-14 11:43:51
155,nouadhibou,20.931,-17.0347,78.78,57,47,20.71,MR,2023-09-14 11:43:51
156,qaqortoq,60.7167,-46.0333,43.27,80,100,5.5,GL,2023-09-14 11:29:18
157,tazovsky,67.4667,78.7,51.73,93,100,11.86,RU,2023-09-14 11:33:51
158,polyarnyy,69.1989,33.4478,42.62,78,70,3.94,RU,2023-09-14 11:34:47
159,holualoa,19.6228,-155.9522,77.74,72,0,6.91,US,2023-09-14 11:43:52
160,sitka,57.0531,-135.33,55.29,82,100,9.22,US,2023-09-14 11:39:22
161,center,31.5107,-96.4247,73.8,94,100,6.91,US,2023-09-14 11:43:52
162,portland,45.5234,-122.6762,73.81,57,0,3.44,US,2023-09-14 11:34:32
163,melilla,35.2937,-2.9383,77.38,94,40,9.22,ES,2023-09-14 11:43:53
164,san pedro,14.35,121.0167,78.4,93,20,2.3,PH,2023-09-14 11:43:53
165,tromso,69.6496,18.957,42.39,87,75,3.44,NO,2023-09-14 11:43:53
166,keflavik,64.0049,-22.5624,52.23,71,0,12.66,IS,2023-09-14 11:34:00
167,lansdowne,39.9382,-75.2719,77.04,47,20,13.8,US,2023-09-14 11:43:53
168,amga,60.8953,131.9608,36.43,96,95,2.82,RU,2023-09-14 11:43:53
169,enriquillo,17.9,-71.2333,89.28,65,63,7.92,DO,2023-09-14 11:43:54
170,ruteng,-8.6136,120.4721,56.77,86,6,2.15,ID,2023-09-14 11:43:54
171,dudinka,69.4058,86.1778,52.63,89,100,14.52,RU,2023-09-14 11:43:54
172,meadow lake,34.8014,-106.5436,73.22,48,1,7.47,US,2023-09-14 11:43:54
173,bermeo,43.4209,-2.7215,71.26,84,34,10.4,ES,2023-09-14 11:43:55
174,lautoka,-17.6167,177.4667,75.06,83,40,9.22,FJ,2023-09-14 11:34:24
175,burang,30.25,81.1667,50.41,84,98,4.88,CN,2023-09-14 11:43:55
176,stanley,54.868,-1.6985,56.68,80,20,8.05,GB,2023-09-14 11:41:58
177,zhangjiakou shi xuanhua qu,40.6103,115.0447,63.54,86,29,4.79,CN,2023-09-14 11:43:55
178,villa bruzual,9.3328,-69.1208,87.08,67,60,5.39,VE,2023-09-14 11:43:56
179,selfoss,63.9331,-20.9971,53.04,76,16,8.88,IS,2023-09-14 11:34:29
180,port alfred,-33.5906,26.891,58.87,69,33,4.63,ZA,2023-09-14 11:43:56
181,ujae,8.9322,165.7642,83.62,74,79,9.17,MH,2023-09-14 11:43:56
182,sos'va,59.1766,61.8558,50.36,81,24,0.94,RU,2023-09-14 11:43:56
183,haiku-pauwela,20.9219,-156.3051,78.89,71,20,11.5,US,2023-09-14 11:43:57
184,bousso,10.4795,16.7117,74.86,87,43,4.72,TD,2023-09-14 11:43:57
185,inhambane,-23.865,35.3833,71.58,88,40,9.22,MZ,2023-09-14 11:35:36
186,iqaluit,63.7506,-68.5145,40.69,60,75,18.41,CA,2023-09-14 11:43:57
187,taulaga,-11.0553,-171.0883,81.97,75,8,10.13,AS,2023-09-14 11:43:58
188,diego de almagro,-26.3667,-70.05,86.07,6,0,12.08,CL,2023-09-14 11:41:29
189,sao geraldo do araguaia,-6.4006,-48.555,101.91,19,1,4.18,BR,2023-09-14 11:43:58
190,utrik,11.2278,169.8474,82.72,78,20,15.35,MH,2023-09-14 11:35:30
191,arboletes,8.8505,-76.4269,85.93,76,100,8.43,CO,2023-09-14 11:43:58
192,pavilosta,56.8879,21.1859,57.11,74,81,9.24,LV,2023-09-14 11:43:59
193,gorakhpur,29.45,75.6833,86.88,62,11,6.31,IN,2023-09-14 11:43:59
194,isafjordur,66.0755,-23.124,48.24,71,0,8.05,IS,2023-09-14 11:34:30
195,port elizabeth,-33.918,25.5701,53.89,76,0,0.0,ZA,2023-09-14 11:43:59
196,tura,25.5198,90.2201,75.51,92,99,6.13,IN,2023-09-14 11:43:59
197,san patricio,28.017,-97.5169,95.52,38,2,12.46,US,2023-09-14 11:43:59
198,manokwari,-0.8667,134.0833,77.72,84,100,6.11,ID,2023-09-14 11:44:00
199,ancud,-41.8697,-73.8203,52.38,97,100,26.44,CL,2023-09-14 11:44:00
200,mokopane,-24.1944,29.0097,61.56,46,0,0.63,ZA,2023-09-14 11:44:00
201,tucuma,-0.1833,-50.05,88.81,56,88,8.03,BR,2023-09-14 11:44:00
202,al kharijah,25.4514,30.5464,81.7,21,0,9.28,EG,2023-09-14 11:44:00
203,balch springs,32.7287,-96.6228,71.91,97,100,4.61,US,2023-09-14 11:44:01
204,retreat,38.8245,-85.8533,76.41,46,0,4.0,US,2023-09-14 11:44:01
205,tejen,37.3834,60.5054,72.93,26,0,9.42,TM,2023-09-14 11:44:01
206,almirante,9.3,-82.4,83.01,64,88,5.01,PA,2023-09-14 11:44:01
207,atafu village,-8.5421,-172.5159,82.9,73,3,8.99,TK,2023-09-14 11:34:03
208,acapulco de juarez,16.8634,-99.8901,89.42,66,20,5.75,MX,2023-09-14 11:33:02
209,quellon,-43.1167,-73.6167,53.85,94,100,12.66,CL,2023-09-14 11:44:02
210,maceio,-9.6658,-35.7353,76.44,100,75,9.22,BR,2023-09-14 11:43:14
211,port blair,11.6667,92.75,78.84,89,100,4.61,IN,2023-09-14 11:44:02
212,mar del plata,-38.0023,-57.5575,64.42,34,0,25.32,AR,2023-09-14 11:34:03
213,idrinskoye,54.3708,92.1358,48.15,91,29,3.31,RU,2023-09-14 11:44:04
214,vallenar,-28.5708,-70.7581,90.16,6,0,6.69,CL,2023-09-14 11:44:04
215,saguenay,48.4168,-71.0657,65.25,69,75,14.97,CA,2023-09-14 11:44:05
216,noumea,-22.2763,166.4572,69.01,99,100,4.76,NC,2023-09-14 11:35:12
217,ballyclare,54.7667,-6.0167,55.22,81,20,10.36,GB,2023-09-14 11:41:21
218,plastun,44.7561,136.2939,53.37,62,0,5.84,RU,2023-09-14 11:44:05
219,port lincoln,-34.7333,135.8667,53.01,89,0,6.6,AU,2023-09-14 11:44:06
220,bodaybo,57.8506,114.1933,43.57,98,100,4.85,RU,2023-09-14 11:34:15
221,toliara,-23.35,43.6667,73.83,81,0,4.9,MG,2023-09-14 11:44:06
222,weiser,44.251,-116.9693,78.12,38,0,1.72,US,2023-09-14 11:44:06
223,ivdel',60.6911,60.4206,51.3,83,18,2.73,RU,2023-09-14 11:32:23
224,siwa oasis,29.2041,25.5195,83.37,21,0,5.19,EG,2023-09-14 11:44:07
225,recani,31.2846,-4.2688,69.37,71,100,14.92,MA,2023-09-14 11:44:07
226,kupang,-10.1667,123.5833,79.38,65,3,11.5,ID,2023-09-14 11:44:07
227,kapa'a,22.0752,-159.319,79.12,76,20,13.8,US,2023-09-14 11:44:07
228,smara,26.7384,-11.6719,81.63,37,2,16.26,EH,2023-09-14 11:44:07
229,broken hill,-31.95,141.4333,63.81,22,94,10.96,AU,2023-09-14 11:44:08
230,san jose del cabo,23.0589,-109.6977,94.91,58,0,3.0,MX,2023-09-14 11:39:34
231,gallneukirchen,48.3543,14.4127,65.34,79,68,4.54,AT,2023-09-14 11:39:22
232,porto novo,6.4965,2.6036,78.62,88,13,7.27,BJ,2023-09-14 11:44:08
233,fuyu,45.1833,124.8167,58.77,69,17,9.98,CN,2023-09-14 11:44:08
234,oltinko'l,40.8011,72.1634,70.2,29,5,5.01,UZ,2023-09-14 11:44:09
235,bonthe,7.5264,-12.505,78.89,84,99,7.67,SL,2023-09-14 11:35:30
236,turpan,42.9333,89.1667,81.36,26,87,1.12,CN,2023-09-14 11:44:09
237,gadzhiyevo,69.2551,33.3362,42.08,79,59,4.41,RU,2023-09-14 11:44:09
238,sao jose da coroa grande,-8.8978,-35.1478,78.73,75,4,10.27,BR,2023-09-14 11:34:13
239,pskov,57.8136,28.3496,55.31,94,75,8.95,RU,2023-09-14 11:39:22
240,uige,-7.6087,15.0613,75.42,63,59,1.07,AO,2023-09-14 11:44:10
241,dakhla,23.6848,-15.958,73.42,78,5,20.71,EH,2023-09-14 11:44:10
242,alesund,62.4723,6.1549,52.74,81,75,4.61,NO,2023-09-14 11:44:10
243,wladyslawowo,54.7909,18.4009,55.94,69,83,6.24,PL,2023-09-14 11:44:10
244,minas de marcona,-15.2119,-75.1103,62.56,64,33,16.35,PE,2023-09-14 11:44:10
245,antalaha,-14.9003,50.2788,70.14,90,62,7.65,MG,2023-09-14 11:44:11
246,luau,-10.7073,22.2247,82.78,24,100,3.85,AO,2023-09-14 11:44:11
247,beira,-19.8436,34.8389,68.09,88,0,6.91,MZ,2023-09-14 11:44:11
248,cambria,35.5641,-121.0808,73.08,66,10,4.09,US,2023-09-14 11:44:11
249,klyuchi,52.2667,79.1667,50.58,90,3,7.11,RU,2023-09-14 11:34:39
250,playa del ingles,27.7567,-15.5787,77.4,70,15,3.0,ES,2023-09-14 11:43:13
251,nar'yan-mar,67.6713,53.087,44.06,92,100,12.62,RU,2023-09-14 11:33:18
252,aldan,58.6031,125.3894,32.11,98,100,5.19,RU,2023-09-14 11:44:12
253,bladel,51.3683,5.2208,61.56,85,62,2.3,NL,2023-09-14 11:44:12
254,cabo san lucas,22.8909,-109.9124,92.37,61,0,4.61,MX,2023-09-14 11:31:12
255,karlskrona,56.1616,15.5866,55.85,87,19,6.22,SE,2023-09-14 11:44:13
256,carnarvon,-24.8667,113.6333,64.13,78,0,13.33,AU,2023-09-14 11:35:17
257,praia grande,-24.0058,-46.4028,66.13,94,100,2.3,BR,2023-09-14 11:43:55
258,lionel town,17.8101,-77.2406,91.29,58,52,10.16,JM,2023-09-14 11:44:13
259,nemuro,43.3236,145.575,59.4,95,100,18.5,JP,2023-09-14 11:34:20
260,east london,-33.0153,27.9116,59.94,77,0,4.61,ZA,2023-09-14 11:35:22
261,kirkwall,58.9848,-2.9587,53.65,82,40,20.71,GB,2023-09-14 11:44:14
262,vyborg,60.7076,28.7528,49.6,86,100,4.09,RU,2023-09-14 11:44:14
263,cill airne,52.05,-9.5167,55.45,94,75,2.3,IE,2023-09-14 11:34:36
264,la sarre,48.8002,-79.1996,63.01,41,37,11.12,CA,2023-09-14 11:44:14
265,afif,23.9065,42.9172,87.1,12,36,5.57,SA,2023-09-14 11:44:14
266,benghazi,32.1167,20.0667,77.13,65,0,12.95,LY,2023-09-14 11:44:15
267,anaconda,46.1285,-112.9423,61.79,35,7,3.11,US,2023-09-14 11:44:15
268,egilsstadir,65.2653,-14.3948,46.31,87,75,2.3,IS,2023-09-14 11:34:23
269,port-gentil,-0.7193,8.7815,78.76,83,75,8.05,GA,2023-09-14 11:44:15
270,katsuren-haebaru,26.3369,127.8719,80.69,88,20,3.44,JP,2023-09-14 11:44:15
271,richard-toll,16.4625,-15.7008,90.39,49,6,16.46,SN,2023-09-14 11:44:15
272,mathis,28.0945,-97.828,94.33,55,1,8.08,US,2023-09-14 11:44:16
273,lorengau,-2.0226,147.2712,80.31,83,54,11.39,PG,2023-09-14 11:44:16
274,gewane,10.1664,40.6453,94.35,27,57,1.12,ET,2023-09-14 11:44:16
275,rongelap,11.1635,166.8941,83.23,78,96,13.02,MH,2023-09-14 11:44:16
276,olinda,-8.0089,-34.8553,82.13,69,40,16.11,BR,2023-09-14 11:41:29
277,aitape,-3.1374,142.3475,76.17,93,100,3.67,PG,2023-09-14 11:35:24
278,berlin,52.5244,13.4105,58.95,74,0,4.0,DE,2023-09-14 11:40:42
279,newman,37.3138,-121.0208,85.26,24,0,1.74,US,2023-09-14 11:44:17
280,nerja,36.7585,-3.8873,76.5,85,100,1.01,ES,2023-09-14 11:44:18
281,gizo,-8.103,156.8419,79.12,82,81,13.73,SB,2023-09-14 11:44:18
282,new norfolk,-42.7826,147.0587,56.71,64,100,3.78,AU,2023-09-14 11:44:18
283,revda,56.801,59.9303,49.75,81,51,1.59,RU,2023-09-14 11:44:18
284,calderitas,18.55,-88.25,91.51,58,40,8.05,MX,2023-09-14 11:44:18
285,east grand forks,47.93,-97.0245,73.9,58,75,6.91,US,2023-09-14 11:44:19
286,aoulef,26.9667,1.0833,98.2,11,2,11.59,DZ,2023-09-14 11:44:19
287,san antonio de pale,-1.4014,5.6325,75.42,81,67,8.7,GQ,2023-09-14 11:44:19
288,nantucket,41.2835,-70.0995,75.36,73,40,6.91,US,2023-09-14 11:39:21
289,nadym,65.5333,72.5167,55.11,68,91,10.07,RU,2023-09-14 11:35:36
290,uliastay,47.7417,96.8444,41.68,65,0,1.23,MN,2023-09-14 11:44:20
291,nambucca heads,-30.65,153.0,55.4,81,100,5.26,AU,2023-09-14 11:44:20
292,puerto ayacucho,5.6639,-67.6236,91.94,55,66,4.94,VE,2023-09-14 11:44:20
293,praia da vitoria,38.7333,-27.0667,73.65,88,75,9.26,PT,2023-09-14 11:35:54
294,bera,24.0833,89.6167,80.31,89,83,12.62,BD,2023-09-14 11:44:20
295,cockburn town,21.4612,-71.1419,84.96,72,100,11.56,TC,2023-09-14 11:41:18
296,kerikeri,-35.2268,173.9474,54.48,79,41,10.04,NZ,2023-09-14 11:34:35
297,kharan,28.5833,65.4167,87.4,10,1,3.2,PK,2023-09-14 11:44:21
298,beroroha,-21.6667,45.1667,75.24,52,0,1.21,MG,2023-09-14 11:44:21
299,kannangad,12.3081,75.1063,77.27,89,100,1.57,IN,2023-09-14 11:44:21
300,tazacorte,28.629,-17.9293,76.17,69,40,20.71,ES,2023-09-14 11:44:21
301,port-saint-louis-du-rhone,43.3833,4.8,75.43,60,0,5.75,FR,2023-09-14 11:44:22
302,mejit,10.2753,170.8646,83.05,76,100,15.01,MH,2023-09-14 11:44:22
303,robore,-18.3333,-59.75,75.29,57,62,0.0,BO,2023-09-14 11:44:22
304,yaren,-0.5472,166.916,81.64,78,92,3.53,NR,2023-09-14 11:44:22
305,karratha,-20.7377,116.8463,70.27,67,0,8.66,AU,2023-09-14 11:44:22
306,happy valley-goose bay,53.3168,-60.3315,68.31,83,100,12.66,CA,2023-09-14 11:34:28
307,richards bay,-28.783,32.0377,69.33,67,0,9.15,ZA,2023-09-14 11:34:38
308,mabini,15.6,120.9833,75.54,91,100,2.01,PH,2023-09-14 11:44:23
309,howrah,22.5892,88.3103,82.4,89,75,6.91,IN,2023-09-14 11:44:23
310,crane,31.3974,-102.3501,88.84,31,0,8.28,US,2023-09-14 11:44:23
311,labrador city,52.9463,-66.9114,62.51,77,75,6.91,CA,2023-09-14 11:30:13
312,ust-tsilma,65.441,52.1498,56.75,71,0,8.16,RU,2023-09-14 11:44:24
313,fortuna,40.5982,-124.1573,71.83,73,20,12.66,US,2023-09-14 11:44:24
314,rosso,16.4986,-15.8153,89.31,51,6,16.06,SN,2023-09-14 11:44:24
315,shanwei,22.782,115.3475,79.18,88,98,6.11,CN,2023-09-14 11:44:24
316,hammerfest,70.6634,23.6821,43.25,81,75,6.91,NO,2023-09-14 11:41:04
317,yuzhno-kurilsk,44.0306,145.8556,59.13,97,100,8.72,RU,2023-09-14 11:35:29
318,la passe,45.5549,-0.8967,74.03,72,0,7.02,FR,2023-09-14 11:35:15
319,choszczno,53.169,15.4205,59.79,85,24,6.33,PL,2023-09-14 11:44:25
320,susuman,62.7833,148.1667,37.22,92,100,3.22,RU,2023-09-14 11:44:26
321,dolinsk,47.35,142.8,52.38,78,0,4.81,RU,2023-09-14 11:44:26
322,hovd,48.0056,91.6419,51.06,39,6,5.46,MN,2023-09-14 11:35:26
323,falmouth,50.1544,-5.0711,63.14,81,66,4.61,GB,2023-09-14 11:44:27
324,muynoq,43.7683,59.0214,63.61,56,100,8.14,UZ,2023-09-14 11:44:27
325,suva,-18.1416,178.4415,74.68,88,75,10.36,FJ,2023-09-14 11:44:27
326,vila franca do campo,37.7167,-25.4333,74.88,99,100,7.83,PT,2023-09-14 11:35:05
327,claveria,18.6074,121.0832,79.95,86,21,2.77,PH,2023-09-14 11:44:27
328,gandajika,-6.75,23.95,76.5,64,9,3.65,CD,2023-09-14 11:44:28
329,east ballina,-28.8667,153.5833,50.79,83,100,5.84,AU,2023-09-14 11:44:28
330,tiksi,71.6872,128.8694,34.88,100,100,3.31,RU,2023-09-14 11:44:28
331,zabaykal'sk,49.6333,117.3167,50.52,67,100,3.31,RU,2023-09-14 11:44:28
332,vadso,70.0744,29.7487,37.56,87,20,5.75,NO,2023-09-14 11:44:29
333,antsiranana,-12.2787,49.2917,73.99,80,46,16.8,MG,2023-09-14 11:43:47
334,ghadamis,30.1337,9.5007,86.52,14,62,8.19,LY,2023-09-14 11:44:29
335,betare oya,5.6,14.0833,69.03,96,100,2.24,CM,2023-09-14 11:44:29
336,taskopru,41.5098,34.2141,54.86,73,0,5.41,TR,2023-09-14 11:44:29
337,anapa,44.8908,37.3239,59.34,82,0,4.47,RU,2023-09-14 11:44:30
338,jagraon,30.7833,75.4833,84.88,66,11,5.7,IN,2023-09-14 11:44:30
339,bogale,16.2833,95.4,76.62,94,100,6.42,MM,2023-09-14 11:44:30
340,port hedland,-20.3167,118.5667,68.05,94,0,4.61,AU,2023-09-14 11:35:43
341,revelstoke,50.9832,-118.2023,60.82,55,0,3.44,CA,2023-09-14 11:44:30
342,suntar,62.1444,117.6319,38.44,94,100,6.69,RU,2023-09-14 11:44:30
343,enewetak,11.3474,162.3373,83.68,75,98,11.34,MH,2023-09-14 11:34:46
344,basco,20.4487,121.9702,81.81,78,100,4.32,PH,2023-09-14 11:44:31
345,onguday,50.75,86.15,40.5,90,67,2.64,RU,2023-09-14 11:44:31
346,krasavino,60.9614,46.4814,56.37,80,100,6.69,RU,2023-09-14 11:44:31
347,ouadda,8.0777,22.4007,69.91,98,100,3.98,CF,2023-09-14 11:44:31
348,kiunga,-6.1219,141.2906,71.87,93,100,4.12,PG,2023-09-14 11:44:32
349,udachny,66.4167,112.4,48.45,93,100,8.81,RU,2023-09-14 11:44:32
350,narrabri,-30.3167,149.7833,51.12,61,70,4.41,AU,2023-09-14 11:44:32
351,carbonear,47.7332,-53.2148,62.1,93,96,8.86,CA,2023-09-14 11:44:32
352,baukau,51.5526,7.2042,60.96,61,75,1.99,DE,2023-09-14 11:44:32
353,aleksandrovsk-sakhalinskiy,50.8975,142.1561,56.23,64,50,11.43,RU,2023-09-14 11:35:23
354,sidi bel abbes,35.1899,-0.6309,74.52,53,97,7.67,DZ,2023-09-14 11:44:33
355,yeppoon,-23.1333,150.7333,56.98,72,0,11.72,AU,2023-09-14 11:44:33
356,hargeysa,9.56,44.065,78.42,49,70,17.6,SO,2023-09-14 11:44:33
357,key west,24.5557,-81.7826,92.73,62,0,11.5,US,2023-09-14 11:30:00
358,anshun,26.25,105.9333,58.39,85,6,3.18,CN,2023-09-14 11:34:59
359,sao vicente,-23.9631,-46.3919,66.16,94,100,2.3,BR,2023-09-14 11:44:34
360,timimoun,29.2639,0.231,98.98,9,40,14.97,DZ,2023-09-14 11:44:34
361,keminmaa,65.8596,24.8228,35.37,93,0,1.14,FI,2023-09-14 11:44:34
362,pisco,-13.7,-76.2167,69.85,68,20,16.11,PE,2023-09-14 11:44:34
363,tarawa,1.419,172.984,82.49,83,40,2.3,KI,2023-09-14 11:44:34
364,lethem,3.3803,-59.7968,98.65,44,40,13.8,GY,2023-09-14 11:44:35
365,zouerate,22.7187,-12.4521,95.31,22,1,13.33,MR,2023-09-14 11:44:35
366,mount isa,-20.7333,139.5,51.57,54,0,0.0,AU,2023-09-14 11:44:35
367,santa cruz,-17.8,-63.1667,78.85,24,75,11.5,BO,2023-09-14 11:30:47
368,grand falls-windsor,48.9332,-55.6649,73.51,75,100,3.0,CA,2023-09-14 11:35:08
369,garhi khairo,28.0606,67.9803,90.75,44,5,8.84,PK,2023-09-14 11:44:36
370,hobyo,5.3505,48.5268,78.37,80,70,23.53,SO,2023-09-14 11:44:36
371,ampanihy,-24.7,44.75,69.76,71,0,13.06,MG,2023-09-14 11:44:36
372,aripuana,-9.1667,-60.6333,97.77,28,96,2.95,BR,2023-09-14 11:44:36
373,hultsfred,57.4882,15.8436,50.68,95,62,4.56,SE,2023-09-14 11:44:36
374,brawley,32.9787,-115.5303,92.68,18,0,3.44,US,2023-09-14 11:44:37
375,xiongzhou,25.1167,114.3,72.95,100,100,0.78,CN,2023-09-14 11:44:37
376,santanyi,39.3546,3.1291,74.68,71,0,12.15,ES,2023-09-14 11:44:37
377,los llanos de aridane,28.6585,-17.9182,73.15,69,40,20.71,ES,2023-09-14 11:44:37
378,popondetta,-8.7537,148.2534,71.76,96,100,0.96,PG,2023-09-14 11:44:37
379,sambava,-14.2667,50.1667,72.0,87,88,10.11,MG,2023-09-14 11:44:38
380,yeed,4.55,43.0333,86.56,46,100,22.28,SO,2023-09-14 11:44:38
381,port macquarie,-31.4333,152.9167,46.89,80,100,6.15,AU,2023-09-14 11:41:02
382,pontotoc,34.2479,-88.9987,80.2,27,100,7.74,US,2023-09-14 11:44:38
383,namibe,-15.1961,12.1522,63.99,87,89,3.56,AO,2023-09-14 11:35:11
384,boa vista,2.8197,-60.6733,94.98,36,40,12.66,BR,2023-09-14 11:44:39
385,paita,-5.0892,-81.1144,73.4,68,20,19.06,PE,2023-09-14 11:44:39
386,nagqu,31.5,92.0,31.44,83,0,3.78,CN,2023-09-14 11:44:39
387,rikaze,29.25,88.8833,57.27,47,10,4.52,CN,2023-09-14 11:44:39
388,lomonosov,59.9061,29.7725,55.31,84,8,9.04,RU,2023-09-14 11:44:39
389,thunder bay,48.4001,-89.3168,66.11,48,40,13.8,CA,2023-09-14 11:42:58
390,verkhnyaya salda,58.0456,60.5533,50.54,81,78,1.28,RU,2023-09-14 11:44:40
391,wenchang,30.904,118.4887,69.19,98,100,1.9,CN,2023-09-14 11:44:40
392,cloverdale,38.8055,-123.0172,90.0,29,0,4.5,US,2023-09-14 11:44:40
393,macau,22.2006,113.5461,80.33,94,40,6.91,MO,2023-09-14 11:44:40
394,tofol,5.3248,163.0078,83.43,72,100,7.94,FM,2023-09-14 11:44:40
395,cadale,2.7603,46.3222,77.97,86,91,17.69,SO,2023-09-14 11:44:41
396,mbanza-ngungu,-5.25,14.8667,79.99,55,28,1.07,CD,2023-09-14 11:44:41
397,umm kaddadah,13.6017,26.6876,91.54,36,78,3.44,SD,2023-09-14 11:44:41
398,howard springs,-12.497,131.047,72.55,86,81,6.04,AU,2023-09-14 11:44:41
399,puerto aysen,-45.4,-72.7,48.24,100,100,0.0,CL,2023-09-14 11:44:41
400,champerico,14.3,-91.9167,91.94,67,60,6.98,GT,2023-09-14 11:44:41
401,general roca,-39.0333,-67.5833,69.62,34,100,31.12,AR,2023-09-14 11:44:42
402,altay,47.8667,88.1167,47.53,64,11,5.64,CN,2023-09-14 11:44:42
403,karliova,39.2983,41.0142,55.63,34,0,3.8,TR,2023-09-14 11:44:42
404,amungan,15.3652,119.9582,79.57,83,100,6.08,PH,2023-09-14 11:44:42
405,sovetskaya gavan',48.9723,140.2878,55.42,61,78,4.09,RU,2023-09-14 11:44:42
406,coquimbo,-29.9533,-71.3436,67.73,48,0,16.11,CL,2023-09-14 11:33:06
407,steamboat springs,40.485,-106.8317,59.36,62,100,9.22,US,2023-09-14 11:42:56
408,ayr,55.4627,-4.6339,57.07,72,40,6.91,GB,2023-09-14 11:44:43
409,nabire,-3.3667,135.4833,74.8,91,100,1.72,ID,2023-09-14 11:44:43
410,nogliki,51.8333,143.1667,49.05,70,47,8.88,RU,2023-09-14 11:44:43
411,manismata,-2.4667,111.0333,74.03,91,18,2.48,ID,2023-09-14 11:44:44
412,maraba,-5.3686,-49.1178,87.98,66,0,3.44,BR,2023-09-14 11:44:44
413,papao,-17.75,-149.55,73.08,88,100,21.61,PF,2023-09-14 11:44:44
414,fada,9.5667,8.3,69.35,97,100,4.61,NG,2023-09-14 11:44:44
415,arkalyk,50.2486,66.9114,54.07,63,50,4.0,KZ,2023-09-14 11:44:44
416,saldanha,-33.0117,17.9442,55.45,88,100,14.83,ZA,2023-09-14 11:44:44
417,moose jaw,50.4001,-105.5344,64.65,48,40,20.71,CA,2023-09-14 11:44:45
418,tamanrasset,22.785,5.5228,91.31,15,40,4.61,DZ,2023-09-14 11:34:57
419,buncrana,55.1333,-7.45,56.97,82,100,5.5,IE,2023-09-14 11:44:45
420,flin flon,54.7682,-101.865,64.24,55,40,8.05,CA,2023-09-14 11:44:45
421,juticalpa,14.65,-86.2,96.94,46,98,2.95,HN,2023-09-14 11:42:07
422,cestos city,5.46,-9.5828,78.31,87,100,9.26,LR,2023-09-14 11:44:46
423,sarkikaraagac,38.0794,31.3664,60.42,31,0,2.57,TR,2023-09-14 11:44:46
424,zeya,53.75,127.2667,46.63,96,100,5.82,RU,2023-09-14 11:44:46
425,akureyri,65.6835,-18.0878,44.53,87,75,10.36,IS,2023-09-14 11:35:21
426,fisterra,42.9049,-9.2629,72.27,82,0,6.55,ES,2023-09-14 11:35:34
427,mata-utu,-13.2816,-176.1745,81.36,77,4,20.36,WF,2023-09-14 11:44:47
428,formosa do rio preto,-11.0483,-45.1931,98.65,12,0,4.25,BR,2023-09-14 11:44:47
429,metkovic,43.0542,17.6483,71.47,71,92,1.28,HR,2023-09-14 11:44:47
430,nuku'alofa,-21.1333,-175.2,71.94,88,75,6.91,TO,2023-09-14 11:44:47
431,betio village,1.358,172.9211,82.44,70,54,1.34,KI,2023-09-14 11:44:47
432,igarka,67.4667,86.5833,55.24,75,100,14.58,RU,2023-09-14 11:34:54
433,murray bridge,-35.1167,139.2667,55.35,90,6,6.04,AU,2023-09-14 11:44:48
434,pitkyaranta,61.5734,31.4792,46.45,92,1,8.88,RU,2023-09-14 11:44:09
435,tagab,34.855,69.6492,75.11,23,0,5.32,AF,2023-09-14 11:44:48
436,puerto maldonado,-12.6,-69.1833,81.0,44,0,5.75,PE,2023-09-14 11:44:48
437,hotan,37.0997,79.9269,74.39,18,0,3.47,CN,2023-09-14 11:35:54
438,zaragoza,41.6561,-0.8773,80.85,38,0,4.61,ES,2023-09-14 11:42:29
439,juneau,58.3019,-134.4197,50.16,95,100,27.63,US,2023-09-14 11:40:44
440,castro marim,37.2207,-7.4435,78.39,68,36,6.8,PT,2023-09-14 11:44:49
441,bocana de paiwas,12.7857,-85.1227,86.31,69,95,6.85,NI,2023-09-14 11:44:49
442,ravar,31.2656,56.8055,83.89,14,0,2.21,IR,2023-09-14 11:44:51
443,qui nhon,13.7667,109.2333,80.58,77,100,6.6,VN,2023-09-14 11:44:51
444,camocim,-2.9022,-40.8411,85.8,61,12,18.81,BR,2023-09-14 11:44:52
445,trairi,-3.2778,-39.2689,83.55,61,6,14.76,BR,2023-09-14 11:44:52
446,tshikapa,-6.4167,20.8,78.57,66,12,3.18,CD,2023-09-14 11:35:15
447,saint-philippe,-21.3585,55.7679,67.59,78,1,8.39,RE,2023-09-14 11:44:52
448,vorkuta,67.5,64.0,49.23,89,100,3.6,RU,2023-09-14 11:44:52
449,siavonga,-16.5382,28.7088,74.57,53,0,7.85,ZM,2023-09-14 11:44:53
450,yelan',50.949,43.7378,50.92,79,26,7.07,RU,2023-09-14 11:44:53
451,bandar-e lengeh,26.5579,54.8807,93.31,79,10,4.61,IR,2023-09-14 11:44:53
452,hailin,44.5833,129.4167,50.5,85,1,2.28,CN,2023-09-14 11:44:53
453,daru,-9.0763,143.2092,74.73,74,100,17.81,PG,2023-09-14 11:35:25
454,port saint john's,-31.6229,29.5448,64.96,81,100,6.67,ZA,2023-09-14 11:44:54
455,davlekanovo,54.2215,55.0343,57.9,66,89,3.09,RU,2023-09-14 11:44:54
456,oranjemund,-28.55,16.4333,55.24,79,0,5.32,NA,2023-09-14 11:44:54
457,illizi,26.4833,8.4667,96.6,13,6,13.02,DZ,2023-09-14 11:44:54
458,hirara,24.8,125.2833,80.87,94,100,12.66,JP,2023-09-14 11:44:54
459,greymouth,-42.4667,171.2,49.71,83,85,11.45,NZ,2023-09-14 11:44:55
460,riosucio,5.4216,-75.7032,72.61,63,100,1.39,CO,2023-09-14 11:44:55
461,douliu,23.7094,120.5433,82.76,76,1,1.1,TW,2023-09-14 11:44:55
462,veraval,20.9,70.3667,80.35,87,16,10.11,IN,2023-09-14 11:44:55
463,changleng,28.7,115.8167,71.83,96,100,3.31,CN,2023-09-14 11:44:55
464,sandy,40.572,-111.8606,74.14,42,0,8.05,US,2023-09-14 11:44:56
465,ratodero,27.803,68.2871,90.27,46,7,9.01,PK,2023-09-14 11:44:56
466,metlili chaamba,32.2667,3.6333,92.34,16,40,10.36,DZ,2023-09-14 11:44:56
467,keren,15.7778,38.4581,77.88,50,16,3.06,ER,2023-09-14 11:44:56
468,byron bay,-28.65,153.6167,50.7,80,100,5.79,AU,2023-09-14 11:44:18
469,tandalti,13.0167,31.8667,86.61,45,85,10.45,SD,2023-09-14 11:44:56
470,george town,5.4112,100.3354,81.0,89,20,2.3,MY,2023-09-14 11:44:57
471,yonan-up,37.9089,126.1611,68.97,81,100,8.52,KP,2023-09-14 11:44:57
472,longview,32.5007,-94.7405,71.58,94,100,4.61,US,2023-09-14 11:41:38
473,micheweni,-4.9667,39.8333,77.52,81,0,15.41,TZ,2023-09-14 11:44:57
474,faya-largeau,17.9257,19.1043,98.02,18,6,10.63,TD,2023-09-14 11:44:57
475,voss,60.623,6.4229,52.54,88,100,3.76,NO,2023-09-14 11:44:58
476,tuy hoa,13.0833,109.3,79.79,77,97,10.09,VN,2023-09-14 11:44:58
477,glencoe,-28.1783,30.147,61.68,36,0,6.26,ZA,2023-09-14 11:44:58
478,mishelevka,52.8575,103.1719,51.46,72,97,4.45,RU,2023-09-14 11:44:58
479,zhigalovo,54.8097,105.1578,41.99,85,7,1.25,RU,2023-09-14 11:44:58
480,ceeldheer,3.8488,47.1806,77.97,81,13,18.88,SO,2023-09-14 11:44:59
481,ulaangom,49.9811,92.0667,53.1,53,100,3.4,MN,2023-09-14 11:44:59
482,tebingtinggi,3.3285,99.1625,74.26,96,85,2.8,ID,2023-09-14 11:44:59
483,sumbawa besar,-8.5,117.4333,70.54,87,73,5.44,ID,2023-09-14 11:44:59
484,saint-pierre,-21.3393,55.4781,67.68,64,0,4.61,RE,2023-09-14 11:35:02
485,prince rupert,54.3161,-130.3201,57.15,69,100,23.02,CA,2023-09-14 11:45:00
486,isla del bosque,22.7333,-105.85,89.26,66,46,6.67,MX,2023-09-14 11:45:00
487,auki,-8.7676,160.7034,74.93,90,95,6.69,SB,2023-09-14 11:45:00
488,mugia,43.1041,-9.2179,71.91,85,1,9.62,ES,2023-09-14 11:45:00
489,island harbour,50.724,-1.2758,61.7,84,15,4.0,GB,2023-09-14 11:45:00
490,koulamoutou,-1.1303,12.4736,79.59,74,90,1.14,GA,2023-09-14 11:45:01
491,bengkulu,-3.8004,102.2655,72.79,94,32,6.33,ID,2023-09-14 11:45:01
492,padang,-0.9492,100.3543,77.05,91,44,6.67,ID,2023-09-14 11:45:01
493,portage la prairie,49.9728,-98.2926,71.69,60,75,11.5,CA,2023-09-14 11:40:19
494,antofagasta,-23.65,-70.4,61.88,65,8,9.13,CL,2023-09-14 11:42:12
495,deqen,29.9618,90.7188,48.7,51,0,2.57,CN,2023-09-14 11:45:02
496,taltal,-25.4,-70.4833,68.97,59,22,5.84,CL,2023-09-14 11:35:35
497,mulanje,-16.0316,35.5,68.9,66,13,5.39,MW,2023-09-14 11:45:02
498,mirriah,13.7073,9.1501,75.81,94,20,4.61,NE,2023-09-14 11:45:02
499,i-n-salah,27.1935,2.4607,95.74,10,2,11.86,DZ,2023-09-14 11:45:03
500,namsos,64.4662,11.4957,48.11,81,100,3.44,NO,2023-09-14 11:45:03
501,piti village,13.4626,144.6933,80.55,92,20,6.91,GU,2023-09-14 11:45:03
502,chernyshevskiy,63.0128,112.4714,43.9,85,100,9.57,RU,2023-09-14 11:35:44
503,louis trichardt,-23.0439,29.9032,62.19,52,0,3.2,ZA,2023-09-14 11:45:04
504,manaure,11.7751,-72.4445,88.63,68,100,12.88,CO,2023-09-14 11:45:04
505,anshan,41.1236,122.99,62.51,76,0,5.14,CN,2023-09-14 11:45:04
506,liberal,37.0431,-100.921,64.54,100,100,8.05,US,2023-09-14 11:45:05
507,bamboo flat,11.7,92.7167,78.89,89,100,4.61,IN,2023-09-14 11:45:05
508,acajutla,13.5928,-89.8275,86.54,67,99,5.66,SV,2023-09-14 11:45:05
509,kailua-kona,19.6406,-155.9956,81.5,72,0,6.91,US,2023-09-14 11:45:05
510,jinji,23.2281,110.8261,72.84,96,100,3.13,CN,2023-09-14 11:45:06
511,el alto,-4.2714,-81.2147,78.46,66,12,22.55,PE,2023-09-14 11:45:06
512,severobaykal'sk,55.65,109.3167,46.04,68,11,7.63,RU,2023-09-14 11:45:06
513,mugla,37.2303,28.3557,67.26,23,98,3.58,TR,2023-09-14 11:45:06
514,huarmey,-10.0681,-78.1522,70.77,73,28,11.36,PE,2023-09-14 11:45:06
515,awjilah,29.1081,21.2869,80.51,26,0,7.63,LY,2023-09-14 11:45:06
516,catumbela,-12.4314,13.5472,70.65,88,73,5.53,AO,2023-09-14 11:45:07
517,queenstown,-31.8976,26.8753,58.5,17,100,5.01,ZA,2023-09-14 11:40:21
518,fuerte olimpo,-21.0415,-57.8738,81.99,22,7,4.23,PY,2023-09-14 11:45:07
519,vinzons,14.1737,122.9066,77.74,87,97,3.15,PH,2023-09-14 11:45:07
520,kupino,54.3663,77.2981,54.68,80,45,6.58,RU,2023-09-14 11:45:08
521,conduaga,8.862,117.4893,79.09,84,100,3.78,PH,2023-09-14 11:45:08
522,juliaca,-15.5,-70.1333,62.58,5,0,9.01,PE,2023-09-14 11:45:08
523,natal,-5.795,-35.2094,80.82,78,75,17.27,BR,2023-09-14 11:44:08
524,kristiansund,63.1115,7.732,54.25,66,40,4.61,NO,2023-09-14 11:45:08
525,arraial do cabo,-22.9661,-42.0278,80.46,65,0,16.11,BR,2023-09-14 11:45:09
526,novo aripuana,-5.1206,-60.3797,104.22,17,4,5.3,BR,2023-09-14 11:45:09
527,koya,34.2129,135.6224,68.81,94,100,1.57,JP,2023-09-14 11:45:09
528,kargasok,59.0556,80.8572,49.57,88,87,1.05,RU,2023-09-14 11:45:09
529,melfort,52.8667,-104.6177,60.93,41,100,18.41,CA,2023-09-14 11:45:10
530,union city,37.5958,-122.0192,72.45,59,20,5.75,US,2023-09-14 11:45:10
531,xai-xai,-25.0519,33.6442,67.91,67,0,10.2,MZ,2023-09-14 11:45:10
532,peniche,39.3558,-9.3811,70.93,88,45,10.85,PT,2023-09-14 11:42:00
533,al jawf,29.5,38.75,82.2,29,0,9.84,SA,2023-09-14 11:45:10
534,nikol'sk,53.7189,46.0712,55.47,75,100,5.5,RU,2023-09-14 11:45:10
535,ambon,-3.6954,128.1814,80.08,15,40,8.05,ID,2023-09-14 11:45:11
536,cavalaire-sur-mer,43.174,6.5272,71.13,83,0,5.88,FR,2023-09-14 11:45:11
537,callao,-12.0667,-77.15,66.49,77,100,5.75,PE,2023-09-14 11:45:11
538,grand-bassam,5.2118,-3.7388,78.76,92,82,5.99,CI,2023-09-14 11:45:11
539,jiaojiang,28.6803,121.4428,79.0,92,100,2.15,CN,2023-09-14 11:45:11
540,lodja,-3.4833,23.4333,68.36,92,90,1.3,CD,2023-09-14 11:45:12
541,yakakent,41.6325,35.5289,65.32,59,0,5.84,TR,2023-09-14 11:45:12
542,bathsheba,13.2167,-59.5167,88.41,70,20,9.22,BB,2023-09-14 11:45:12
543,ingeniero guillermo n. juarez,-23.9,-61.85,81.32,16,0,5.73,AR,2023-09-14 11:45:12
544,makinsk,52.6292,70.4169,52.65,70,66,5.86,KZ,2023-09-14 11:45:13
545,nguigmi,14.2495,13.1092,84.74,62,100,13.18,NE,2023-09-14 11:45:14
546,kill devil hills,36.0307,-75.676,80.35,65,0,21.85,US,2023-09-14 11:45:14
547,andergrove,-21.0833,149.1833,61.65,71,12,14.56,AU,2023-09-14 11:45:14
548,san julian,21.0167,-102.1667,77.83,27,0,4.41,MX,2023-09-14 11:45:15
549,buala,-8.145,159.5921,78.06,86,100,8.59,SB,2023-09-14 11:45:15
550,olyokminsk,60.3736,120.4264,40.6,90,94,10.13,RU,2023-09-14 11:45:15
551,puerto deseado,-47.7503,-65.8938,45.54,52,4,6.82,AR,2023-09-14 11:35:15
552,guisa,20.255,-76.5386,92.17,44,56,5.26,CU,2023-09-14 11:45:15
553,xining,36.6167,101.7667,51.48,71,16,2.66,CN,2023-09-14 11:45:16
554,jayapura,-2.5333,140.7,74.59,93,100,4.07,ID,2023-09-14 11:45:16
555,khandyga,62.6667,135.6,42.33,96,100,2.93,RU,2023-09-14 11:45:16
556,emerald,-23.5333,148.1667,56.28,82,0,5.84,AU,2023-09-14 11:45:16
557,gornopravdinsk,60.05,69.9,52.47,79,58,2.55,RU,2023-09-14 11:45:17
558,degerfors,59.238,14.4308,49.28,84,59,3.51,SE,2023-09-14 11:45:17
559,ranau,5.9538,116.6641,68.56,90,97,1.59,MY,2023-09-14 11:45:17
560,naze,28.3667,129.4833,77.92,86,36,8.66,JP,2023-09-14 11:45:17
561,nola,40.922,14.5329,76.57,73,30,3.09,IT,2023-09-14 11:44:43
562,vershino-darasunskiy,52.35,115.5167,40.28,83,62,4.5,RU,2023-09-14 11:45:18
563,murun-kuren,49.6342,100.1625,45.63,95,100,1.5,MN,2023-09-14 11:45:18
564,lubang,13.8584,120.124,82.85,76,99,10.18,PH,2023-09-14 11:45:18
565,sinjar,36.3209,41.8754,81.07,14,0,14.03,IQ,2023-09-14 11:45:18
566,northam,51.0333,-4.2167,62.62,90,100,6.26,GB,2023-09-14 11:45:18
567,al muwayh,22.4333,41.7583,88.25,11,24,5.93,SA,2023-09-14 11:45:18
568,goba,7.0167,39.9833,53.92,85,100,2.53,ET,2023-09-14 11:45:19
